{"18492910339410B1": {"data": {"stop": "18492910339410B1", "name_en": "CHUK YUEN ESTATE BUS TERMINUS", "name_tc": "竹園邨總站", "name_sc": "竹园邨总站", "lat": "22.345415", "long": "114.192640"}, "alt": ["18492910339410B1", "18492910339410B1", "53F544F4B03B5AE4", "272546A2E2F4FCEF", "65E3545412EECF41", "2BF46D2A46F5451D", "53F544F4B03B5AE4", "272546A2E2F4FCEF", "65E3545412EECF41", "2BF46D2A46F5451D"], "td": ["4001"], "rt": ["KMB_1"]}, "9ED7E93749ABAE67": {"data": {"stop": "9ED7E93749ABAE67", "name_en": "RAINBOW PRIMARY SCHOOL", "name_tc": "天虹小學", "name_sc": "天虹小学", "lat": "22.345076", "long": "114.190023"}, "alt": [], "td": ["793", "4002", "20013960"], "rt": ["KMB_1", "KMB_11K"]}, "9583BCF159B682BA": {"data": {"stop": "9583BCF159B682BA", "name_en": "MA CHAI HANG RECREATION GROUND", "name_tc": "馬仔坑遊樂場", "name_sc": "马仔坑游乐场", "lat": "22.344296", "long": "114.187763"}, "alt": ["001528"], "td": ["4003", "20015433"], "rt": ["KMB_1", "KMB_2B", "KMB_11K", "KMB_103"]}, "D360B3EBF155C15A": {"data": {"stop": "D360B3EBF155C15A", "name_en": "MORSE PARK", "name_tc": "摩士公園", "name_sc": "摩士公园", "lat": "22.339876", "long": "114.189506"}, "alt": ["003006"], "td": ["1372", "4004", "4005", "8089"], "rt": ["KMB_1", "KMB_7", "KMB_11K", "KMB_113", "KMB_891"]}, "713BF17AF24FE4DA": {"data": {"stop": "713BF17AF24FE4DA", "name_en": "MORSE PARK SPORTS CENTRE", "name_tc": "摩士公園體育館", "name_sc": "摩士公园体育馆", "lat": "22.338347", "long": "114.189704"}, "alt": ["003007"], "td": ["4005"], "rt": ["KMB_1", "KMB_7", "KMB_11K", "KMB_113", "KMB_224R", "KMB_225R", "KMB_891"]}, "7C4E16F4A138B142": {"data": {"stop": "7C4E16F4A138B142", "name_en": "WAI TUNG HOUSE", "name_tc": "偉東樓", "name_sc": "伟东楼", "lat": "22.335816", "long": "114.191616"}, "alt": ["003008"], "td": ["4006"], "rt": ["KMB_1", "KMB_2D", "KMB_10", "KMB_11K", "KMB_113"]}, "A47333D8B495F77D": {"data": {"stop": "A47333D8B495F77D", "name_en": "YING TUNG HOUSE", "name_tc": "盈東樓", "name_sc": "盈东楼", "lat": "22.334044", "long": "114.191109"}, "alt": [], "td": ["8090"], "rt": ["KMB_1", "KMB_2D", "KMB_10"]}, "946C74E30100FE80": {"data": {"stop": "946C74E30100FE80", "name_en": "KOWLOON WALLED CITY PARK", "name_tc": "九龍寨城公園", "name_sc": "九龙寨城公园", "lat": "22.332261", "long": "114.187981"}, "alt": ["003009"], "td": ["4008", "4040"], "rt": ["KMB_1", "KMB_10", "KMB_11K", "KMB_113"]}, "C8203D267CECF949": {"data": {"stop": "C8203D267CECF949", "name_en": "CARPENTER ROAD", "name_tc": "賈炳達道", "name_sc": "贾炳达道", "lat": "22.330135", "long": "114.187112"}, "alt": ["003010"], "td": ["4009", "9130", "20014212"], "rt": ["KMB_1", "KMB_113"]}, "DB581AD59964EA41": {"data": {"stop": "DB581AD59964EA41", "name_en": "PRINCE EDWARD ROAD WEST", "name_tc": "太子道西", "name_sc": "太子道西", "lat": "22.328025", "long": "114.187038"}, "alt": ["003011"], "td": ["4010", "4011", "4012", "4013", "4014", "4015", "4016", "4074", "4079", "8101", "9122", "9123", "20000628", "20004126", "20014197", "20014198", "20014213", "20014245", "20014651", "20014785", "20014786", "20014787", "20014788", "20015018", "20015112", "20015120", "20015157", "20015158", "20015163", "20015248", "20015296", "20015616", "20015617", "20015620", "20017031", "20017032", "20017033", "20017034", "20017169", "20017170", "20017181", "20017182"], "rt": ["KMB_1", "KMB_113"]}, "9DBBC71CB1578A87": {"data": {"stop": "9DBBC71CB1578A87", "name_en": "LA SALLE ROAD", "name_tc": "喇沙利道", "name_sc": "喇沙利道", "lat": "22.326473", "long": "114.183159"}, "alt": ["003012"], "td": ["4011", "9122", "9144", "20014161", "20014162", "20014163", "20014164", "20014199", "20014200", "20014486", "20014487"], "rt": ["KMB_1", "KMB_1A", "KMB_24", "KMB_27", "KMB_95", "KMB_113", "KMB_213D", "KMB_N216"]}, "312CD2A987AA2773": {"data": {"stop": "312CD2A987AA2773", "name_en": "EARL STREET", "name_tc": "伯爵街", "name_sc": "伯爵街", "lat": "22.325975", "long": "114.180423"}, "alt": ["003013"], "td": ["4012", "9121", "20014786"], "rt": ["KMB_1", "KMB_1A", "KMB_24", "KMB_27", "KMB_95", "KMB_113", "KMB_208", "KMB_213D", "KMB_N216"]}, "40E8A4AA35AEB18A": {"data": {"stop": "40E8A4AA35AEB18A", "name_en": "KNIGHT STREET", "name_tc": "勵德街", "name_sc": "励德街", "lat": "22.325359", "long": "114.176886"}, "alt": [], "td": ["4013", "7108", "20009675"], "rt": ["KMB_1", "KMB_1A", "KMB_24", "KMB_27", "KMB_95", "KMB_213D", "KMB_N216"]}, "60F1DDDCB555E319": {"data": {"stop": "60F1DDDCB555E319", "name_en": "DIOCESAN BOYS' SCHOOL", "name_tc": "拔萃男書院", "name_sc": "拔萃男书院", "lat": "22.324949", "long": "114.174484"}, "alt": [], "td": ["4014"], "rt": ["KMB_1", "KMB_1A", "KMB_3C", "KMB_12A", "KMB_81S", "KMB_87D", "KMB_87E", "KMB_95", "KMB_281A"]}, "65B934D14EA190F1": {"data": {"stop": "65B934D14EA190F1", "name_en": "HEEP WOH PRIMARY SCHOOL", "name_tc": "協和小學", "name_sc": "协和小学", "lat": "22.324613", "long": "114.172570"}, "alt": ["002835"], "td": ["4015", "20016997"], "rt": ["KMB_1", "KMB_1A", "KMB_3C", "KMB_42", "KMB_95", "KMB_104", "KMB_203C", "KMB_203S", "KMB_N216"]}, "F7CAA2D4FF9D61F7": {"data": {"stop": "F7CAA2D4FF9D61F7", "name_en": "PRINCE EDWARD STATION", "name_tc": "太子站", "name_sc": "太子站", "lat": "22.324126", "long": "114.169855"}, "alt": [], "td": ["211", "4016", "4034", "9077", "20014246"], "rt": ["KMB_1", "KMB_1A", "KMB_2X", "KMB_42", "KMB_81S", "KMB_87D", "KMB_87E", "KMB_93K", "KMB_98E", "KMB_203S", "KMB_272X", "KMB_281A", "KMB_296P"]}, "6AB438AD3AE100DD": {"data": {"stop": "6AB438AD3AE100DD", "name_en": "NELSON STREET MONG KOK (S16)", "name_tc": "旺角奶路臣街 (S16)", "name_sc": "旺角奶路臣街 (S16)", "lat": "22.318603", "long": "114.169603"}, "alt": ["6AB438AD3AE100DD", "6AB438AD3AE100DD", "AB4C15B92D4199BB", "14F176D358D65A8B", "50FF703302734DFF", "CABD12E7E061FC91", "32491C3A5645AD42", "AB4C15B92D4199BB", "14F176D358D65A8B", "50FF703302734DFF", "CABD12E7E061FC91", "32491C3A5645AD42"], "td": [], "rt": ["KMB_1", "KMB_1A", "KMB_2", "KMB_6"]}, "456320D47FFB5B1A": {"data": {"stop": "456320D47FFB5B1A", "name_en": "SOY STREET MONG KOK (S24)", "name_tc": "旺角豉油街 (S24)", "name_sc": "旺角豉油街 (S24)", "lat": "22.316174", "long": "114.170140"}, "alt": ["456320D47FFB5B1A", "456320D47FFB5B1A", "7BE18698D0E8FDCE", "E93113C9CA615B0C", "8E3A5C15E42020BB", "7BE18698D0E8FDCE", "E93113C9CA615B0C", "8E3A5C15E42020BB"], "td": [], "rt": ["KMB_1", "KMB_1A", "KMB_2", "KMB_6", "KMB_9"]}, "5EEA801CA265E5C1": {"data": {"stop": "5EEA801CA265E5C1", "name_en": "WING SING LANE YAU MA TEI (S33)", "name_tc": "油麻地永星里 (S33)", "name_sc": "油麻地永星里 (S33)", "lat": "22.311527", "long": "114.171044"}, "alt": ["5EEA801CA265E5C1", "5EEA801CA265E5C1", "EDF107F1315D6805", "96442B84082D4DF5", "EDF107F1315D6805", "96442B84082D4DF5"], "td": [], "rt": ["KMB_1", "KMB_1A", "KMB_2", "KMB_6", "KMB_9", "KMB_203S"]}, "5241470E37FA628F": {"data": {"stop": "5241470E37FA628F", "name_en": "CHEONG LOK STREET YAU MA TEI (S43)", "name_tc": "油麻地長樂街 (S43)", "name_sc": "油麻地长乐街 (S43)", "lat": "22.306710", "long": "114.171641"}, "alt": ["5241470E37FA628F", "5241470E37FA628F", "508D99EBC9AB3A9B", "508D99EBC9AB3A9B"], "td": [], "rt": ["KMB_1", "KMB_1A", "KMB_2", "KMB_6", "KMB_7"]}, "A6AED77D365E7011": {"data": {"stop": "A6AED77D365E7011", "name_en": "TAK SHING STREET TSIM SHA TSUI (S46)", "name_tc": "尖沙咀德成街 (S46)", "name_sc": "尖沙咀德成街 (S46)", "lat": "22.304530", "long": "114.171826"}, "alt": ["A6AED77D365E7011", "A6AED77D365E7011", "CD7C28BDF71C00D7", "E10A0960D4E103B1", "A37F8CF766FCF9F3", "CD7C28BDF71C00D7", "E10A0960D4E103B1", "A37F8CF766FCF9F3"], "td": [], "rt": ["KMB_1", "KMB_1A", "KMB_271", "KMB_271B", "KMB_271P", "KMB_281A", "KMB_296D"]}, "1DEB855D55528B03": {"data": {"stop": "1DEB855D55528B03", "name_en": "CAMERON ROAD (S51)", "name_tc": "金馬倫道 (S51)", "name_sc": "金马伦道 (S51)", "lat": "22.298979", "long": "114.172114"}, "alt": ["1DEB855D55528B03", "1DEB855D55528B03"], "td": [], "rt": ["KMB_1", "KMB_1A", "KMB_2", "KMB_6", "KMB_9", "KMB_26", "KMB_26X", "KMB_98D", "KMB_98P", "KMB_203S", "KMB_270A", "KMB_270C", "KMB_N216", "KMB_N241"]}, "11A1269F9B78F269": {"data": {"stop": "11A1269F9B78F269", "name_en": "TSIM SHA TSUI BBI - MIDDLE ROAD (S53)", "name_tc": "尖沙咀轉車站 - 中間道 (S53)", "name_sc": "尖沙咀转车站 - 中间道 (S53)", "lat": "22.295877", "long": "114.172442"}, "alt": ["11A1269F9B78F269", "11A1269F9B78F269", "45F2E2A508556D6E", "D2217D7746597D10", "452AD79BA74CF8F3", "45F2E2A508556D6E", "D2217D7746597D10", "452AD79BA74CF8F3"], "td": [], "rt": ["KMB_1", "KMB_1A", "KMB_2", "KMB_6", "KMB_7", "KMB_9", "KMB_N216", "KMB_N241"]}, "E507F6160447C129": {"data": {"stop": "E507F6160447C129", "name_en": "HONG KONG CULTURAL CENTRE", "name_tc": "香港文化中心", "name_sc": "香港文化中心", "lat": "22.294519", "long": "114.171217"}, "alt": [], "td": ["7006"], "rt": ["KMB_1", "KMB_1A", "KMB_2", "KMB_5P", "KMB_5X", "KMB_6", "KMB_7", "KMB_8A", "KMB_8P", "KMB_92R"]}, "C88E34E485B43EFB": {"data": {"stop": "C88E34E485B43EFB", "name_en": "STAR FERRY", "name_tc": "尖沙咀碼頭", "name_sc": "尖沙咀码头", "lat": "22.294304", "long": "114.169112"}, "alt": [], "td": ["4025"], "rt": ["KMB_1"]}, "AB057A63C24E990E": {"data": {"stop": "AB057A63C24E990E", "name_en": "TSIM SHA TSUI BBI - MIDDLE ROAD (N3)", "name_tc": "尖沙咀轉車站 - 中間道 (N3)", "name_sc": "尖沙咀转车站 - 中间道 (N3)", "lat": "22.296050", "long": "114.172172"}, "alt": ["AB057A63C24E990E", "AB057A63C24E990E", "1F2E60EDB4254D30", "1F2E60EDB4254D30"], "td": [], "rt": ["KMB_1", "KMB_1A", "KMB_2", "KMB_3X", "KMB_6", "KMB_7", "KMB_9", "KMB_203C", "KMB_208", "KMB_260X", "KMB_268B", "KMB_269B", "KMB_N241"]}, "2946BA6CACA326DF": {"data": {"stop": "2946BA6CACA326DF", "name_en": "KIMBERLEY ROAD (N12)", "name_tc": "金巴利道 (N12)", "name_sc": "金巴利道 (N12)", "lat": "22.300018", "long": "114.171904"}, "alt": ["2946BA6CACA326DF", "2946BA6CACA326DF", "EA4A3876639F21B4", "EA4A3876639F21B4"], "td": [], "rt": ["KMB_1", "KMB_1A", "KMB_6", "KMB_203C"]}, "6C34AE386C779E0B": {"data": {"stop": "6C34AE386C779E0B", "name_en": "BOWRING STREET YAU MA TEI (N22)", "name_tc": "油麻地寶靈街 (N22)", "name_sc": "油麻地宝灵街 (N22)", "lat": "22.304695", "long": "114.171587"}, "alt": ["6C34AE386C779E0B", "6C34AE386C779E0B", "20D0C9CBE2BC9451", "B0F64FFFBECE8AA4", "20D0C9CBE2BC9451", "B0F64FFFBECE8AA4"], "td": [], "rt": ["KMB_1", "KMB_1A", "KMB_N241", "KMB_N41X"]}, "3C9C928E1674AB98": {"data": {"stop": "3C9C928E1674AB98", "name_en": "KOWLOON CENTRAL POST OFFICE (N36)", "name_tc": "九龍中央郵政局 (N36)", "name_sc": "九龙中央邮政局 (N36)", "lat": "22.309296", "long": "114.171138"}, "alt": ["3C9C928E1674AB98", "3C9C928E1674AB98", "FABC0445FC1C04D7", "5EEFE2E2583B576B", "2DB47A3C263E4F5C", "B046BFB6CCD3E7CE", "D7C7D86E923EEAE1", "3B672FFFDB172686", "D9F1ED8B7D7C5AAD", "FABC0445FC1C04D7", "5EEFE2E2583B576B", "2DB47A3C263E4F5C", "B046BFB6CCD3E7CE", "D7C7D86E923EEAE1", "3B672FFFDB172686", "D9F1ED8B7D7C5AAD"], "td": [], "rt": ["KMB_1", "KMB_1A", "KMB_6", "KMB_N241", "KMB_N41X"]}, "775FC7E2B86C4E3F": {"data": {"stop": "775FC7E2B86C4E3F", "name_en": "MAN MING LANE YAU MA TEI (N40)", "name_tc": "油麻地文明里 (N40)", "name_sc": "油麻地文明里 (N40)", "lat": "22.311068", "long": "114.170860"}, "alt": ["775FC7E2B86C4E3F", "775FC7E2B86C4E3F", "A8E63F70F386C05A", "E50D6F218BC33CD0", "A93947027435EBAD", "088B858E4B54D8AC", "A8E63F70F386C05A", "E50D6F218BC33CD0", "A93947027435EBAD", "088B858E4B54D8AC"], "td": [], "rt": ["KMB_1", "KMB_1A", "KMB_9"]}, "01A56227D21AFB04": {"data": {"stop": "01A56227D21AFB04", "name_en": "CHEUNG SHA STREET MONG KOK (N52)", "name_tc": "旺角長沙街 (N52)", "name_sc": "旺角长沙街 (N52)", "lat": "22.315797", "long": "114.169950"}, "alt": ["01A56227D21AFB04", "01A56227D21AFB04", "05D8591BD5405ED4", "05D8591BD5405ED4"], "td": [], "rt": ["KMB_1", "KMB_1A", "KMB_9"]}, "221A18C37331E6FD": {"data": {"stop": "221A18C37331E6FD", "name_en": "NELSON STREET MONG KOK (N65)", "name_tc": "旺角奶路臣街 (N65)", "name_sc": "旺角奶路臣街 (N65)", "lat": "22.318521", "long": "114.169408"}, "alt": ["002817", "221A18C37331E6FD", "221A18C37331E6FD", "6E2A7A2CD29F9216", "E6124D0EDF568E1E", "258EDF9D3C3FD200", "A6ACEA5D8F32521D", "D948E91F481784FF", "6E2A7A2CD29F9216", "E6124D0EDF568E1E", "258EDF9D3C3FD200", "A6ACEA5D8F32521D", "D948E91F481784FF"], "td": [], "rt": ["KMB_1", "KMB_1A", "KMB_63X", "KMB_104", "KMB_268X", "KMB_269X", "KMB_270S"]}, "3C50188583DABFC8": {"data": {"stop": "3C50188583DABFC8", "name_en": "HK & KLN CHIU CHOW SCHOOL", "name_tc": "港九潮州公學", "name_sc": "港九潮州公学", "lat": "22.321874", "long": "114.171093"}, "alt": ["002818"], "td": ["4032"], "rt": ["KMB_1", "KMB_1A", "KMB_104"]}, "EA59A314ABB9386E": {"data": {"stop": "EA59A314ABB9386E", "name_en": "QUEEN ELIZABETH SCHOOL", "name_tc": "伊利沙伯中學", "name_sc": "伊利沙伯中学", "lat": "22.323508", "long": "114.170771"}, "alt": ["002819"], "td": ["4033", "9116", "20001620", "20009676"], "rt": ["KMB_1", "KMB_1A", "KMB_93K", "KMB_104", "KMB_203C"]}, "1D70AD74F1C97404": {"data": {"stop": "1D70AD74F1C97404", "name_en": "PRINCE EDWARD STATION", "name_tc": "太子站", "name_sc": "太子站", "lat": "22.324645", "long": "114.169348"}, "alt": ["002820"], "td": ["211", "4016", "4034", "9077", "20014246"], "rt": ["KMB_1", "KMB_104", "KMB_203C"]}, "6045969736940272": {"data": {"stop": "6045969736940272", "name_en": "FA HUI PARK", "name_tc": "花墟公園", "name_sc": "花墟公园", "lat": "22.326866", "long": "114.173105"}, "alt": [], "td": ["4035", "7107", "20013730", "20015160", "20017178", "20017195"], "rt": ["KMB_1", "KMB_1A", "KMB_2D", "KMB_6D", "KMB_6P", "KMB_12A", "KMB_42", "KMB_87D", "KMB_87E", "KMB_98E", "KMB_281A"]}, "F851B0B122F38CCC": {"data": {"stop": "F851B0B122F38CCC", "name_en": "CARITAS DORMITORY PRINCE EDWARD", "name_tc": "明愛太子宿舍", "name_sc": "明爱太子宿舍", "lat": "22.326955", "long": "114.176894"}, "alt": ["003017"], "td": ["4077"], "rt": ["KMB_1", "KMB_1A", "KMB_2D", "KMB_6D", "KMB_6P", "KMB_42", "KMB_98E", "KMB_113"]}, "C4F65410A7A2E8B6": {"data": {"stop": "C4F65410A7A2E8B6", "name_en": "LA SALLE PRIMARY SCHOOL", "name_tc": "喇沙小學", "name_sc": "喇沙小学", "lat": "22.327132", "long": "114.180671"}, "alt": [], "td": ["4055", "9120", "20014199", "20015162", "20017179"], "rt": ["KMB_1", "KMB_12A"]}, "1E58DF8CAD59712E": {"data": {"stop": "1E58DF8CAD59712E", "name_en": "ST. TERESA'S HOSPITAL", "name_tc": "聖德肋撒醫院", "name_sc": "圣德肋撒医院", "lat": "22.327382", "long": "114.185584"}, "alt": ["003019"], "td": ["4037", "20014198", "20014785", "20015311"], "rt": ["KMB_1", "KMB_1A", "KMB_6D", "KMB_6P", "KMB_7B", "KMB_12A", "KMB_42", "KMB_113"]}, "FD45CEE7D2E4A9BF": {"data": {"stop": "FD45CEE7D2E4A9BF", "name_en": "NGA TSIN WAI ROAD", "name_tc": "衙前圍道", "name_sc": "衙前围道", "lat": "22.328490", "long": "114.186330"}, "alt": ["003020"], "td": ["4038", "9129", "10000146", "20000550", "20012111", "20012121", "20014165", "20014166", "20014191", "20014192", "20014485"], "rt": ["KMB_1", "KMB_7B", "KMB_113"]}, "C6F9EC39B9F09F32": {"data": {"stop": "C6F9EC39B9F09F32", "name_en": "DUMBARTON ROAD", "name_tc": "東寶庭道", "name_sc": "东宝庭道", "lat": "22.330563", "long": "114.186481"}, "alt": ["003021"], "td": ["4039", "9131", "9141"], "rt": ["KMB_1", "KMB_7B", "KMB_113"]}, "0021600EF3DBEF94": {"data": {"stop": "0021600EF3DBEF94", "name_en": "KOWLOON WALLED CITY PARK", "name_tc": "九龍寨城公園", "name_sc": "九龙寨城公园", "lat": "22.332460", "long": "114.188921"}, "alt": ["003022"], "td": ["4008", "4040"], "rt": ["KMB_1", "KMB_11K", "KMB_113"]}, "26DE86F5E667C410": {"data": {"stop": "26DE86F5E667C410", "name_en": "MEI TUNG HOUSE", "name_tc": "美東樓", "name_sc": "美东楼", "lat": "22.333067", "long": "114.190213"}, "alt": ["003023"], "td": ["8091", "20012382"], "rt": ["KMB_1", "KMB_11K", "KMB_113"]}, "B8626845E031C9CF": {"data": {"stop": "B8626845E031C9CF", "name_en": "MORSE PARK OPEN-AIR THEATRE", "name_tc": "摩士露天劇場", "name_sc": "摩士露天剧场", "lat": "22.336181", "long": "114.191437"}, "alt": ["003024"], "td": ["8089"], "rt": ["KMB_1", "KMB_2D", "KMB_11K", "KMB_113"]}, "E1EAFF3759608D41": {"data": {"stop": "E1EAFF3759608D41", "name_en": "HONG KEUNG COURT", "name_tc": "康強苑", "name_sc": "康强苑", "lat": "22.337390", "long": "114.190305"}, "alt": [], "td": ["12364", "12795"], "rt": ["KMB_1", "KMB_11K"]}, "F2794804DD8799B4": {"data": {"stop": "F2794804DD8799B4", "name_en": "WANG YIP HOUSE", "name_tc": "宏業樓", "name_sc": "宏业楼", "lat": "22.340330", "long": "114.189207"}, "alt": [], "td": ["1373", "4043", "20015434"], "rt": ["KMB_1", "KMB_11K"]}, "CEACD1DF9F00EF44": {"data": {"stop": "CEACD1DF9F00EF44", "name_en": "TIN WANG COURT", "name_tc": "天宏苑", "name_sc": "天宏苑", "lat": "22.344413", "long": "114.187669"}, "alt": ["001527"], "td": ["1012", "12581", "20013961", "20013971"], "rt": ["KMB_1", "KMB_2B", "KMB_7M", "KMB_11C", "KMB_11K", "KMB_103", "KMB_211"]}, "6E410E80F8C9915B": {"data": {"stop": "6E410E80F8C9915B", "name_en": "RAINBOW PRIMARY SCHOOL", "name_tc": "天虹小學", "name_sc": "天虹小学", "lat": "22.345294", "long": "114.189927"}, "alt": ["001454"], "td": ["793", "4002", "20013960"], "rt": ["KMB_1", "KMB_2B", "KMB_7M", "KMB_11C", "KMB_11K", "KMB_103", "KMB_211", "KMB_211A"]}, "A3ADFCDF8487ADB9": {"data": {"stop": "A3ADFCDF8487ADB9", "name_en": "SAU MAU PING (CENTRAL)", "name_tc": "中秀茂坪", "name_sc": "中秀茂坪", "lat": "22.318856", "long": "114.231353"}, "alt": [], "td": ["4056"], "rt": ["KMB_1A"]}, "6F106FD26B684372": {"data": {"stop": "6F106FD26B684372", "name_en": "SAU ON HOUSE", "name_tc": "秀安樓", "name_sc": "秀安楼", "lat": "22.316738", "long": "114.233354"}, "alt": [], "td": ["1020"], "rt": ["KMB_1A", "KMB_11C", "KMB_11X", "KMB_13D", "KMB_13M", "KMB_13X", "KMB_14D", "KMB_88", "KMB_95", "KMB_213D", "KMB_290A", "KMB_613", "KMB_613A", "KMB_N213", "KMB_N216", "KMB_N290"]}, "26305AF62FBEE2BC": {"data": {"stop": "26305AF62FBEE2BC", "name_en": "SAU MING HOUSE", "name_tc": "秀明樓", "name_sc": "秀明楼", "lat": "22.315095", "long": "114.234630"}, "alt": [], "td": ["1021", "1034", "20007670", "20014134"], "rt": ["KMB_1A", "KMB_13M", "KMB_13X", "KMB_613", "KMB_613A", "KMB_N213", "KMB_N216"]}, "A8CE52F4450FE939": {"data": {"stop": "A8CE52F4450FE939", "name_en": "LEUNG SHEK CHEE COLLEGE", "name_tc": "梁式芝書院", "name_sc": "梁式芝书院", "lat": "22.315549", "long": "114.232908"}, "alt": [], "td": ["4059", "4094", "20015577"], "rt": ["KMB_1A", "KMB_13X", "KMB_N293"]}, "41E81A921D79F375": {"data": {"stop": "41E81A921D79F375", "name_en": "HIU LAI COURT", "name_tc": "曉麗苑", "name_sc": "晓丽苑", "lat": "22.318714", "long": "114.229840"}, "alt": ["003038"], "td": ["4060", "4092", "20014090", "20014093", "20015071", "20015087", "20015579"], "rt": ["KMB_1A", "KMB_13M", "KMB_13X", "KMB_93A", "KMB_601", "KMB_601P", "KMB_N293"]}, "04B6438688E12AC0": {"data": {"stop": "04B6438688E12AC0", "name_en": "CHEUNG WO COURT", "name_tc": "祥和苑", "name_sc": "祥和苑", "lat": "22.319803", "long": "114.227405"}, "alt": ["003039"], "td": ["4061", "8244", "20015580", "20016601"], "rt": ["KMB_1A", "KMB_13M", "KMB_13P", "KMB_28B", "KMB_93A", "KMB_601", "KMB_601P", "KMB_N293"]}, "AE2A9F719AB5E353": {"data": {"stop": "AE2A9F719AB5E353", "name_en": "WO LOK ESTATE", "name_tc": "和樂邨", "name_sc": "和乐邨", "lat": "22.317004", "long": "114.226686"}, "alt": [], "td": ["4062", "4090", "8233", "20014091", "20016599", "20016600"], "rt": ["KMB_1A", "KMB_13D", "KMB_13P"]}, "B7773ED8D2FC08E5": {"data": {"stop": "B7773ED8D2FC08E5", "name_en": "YUE MAN SQUARE", "name_tc": "裕民坊", "name_sc": "裕民坊", "lat": "22.313816", "long": "114.224041"}, "alt": [], "td": ["1086", "8225", "20002191", "20012060", "20014072", "20015557", "20016899", "20016900", "20017290"], "rt": ["KMB_1A", "KMB_13P"]}, "B9560CB9F6044374": {"data": {"stop": "B9560CB9F6044374", "name_en": "KWUN TONG BBI - MILLENNIUM CITY (B7)", "name_tc": "觀塘轉車站 - 創紀之城 (B7)", "name_sc": "观塘转车站 - 创纪之城 (B7)", "lat": "22.313895", "long": "114.221908"}, "alt": ["B9560CB9F6044374", "B9560CB9F6044374", "8BAB6AA783EE0508", "015AD27DAC83E698", "20B34B5CA0E66973", "FDFA7692A141612F", "179C182ADEF1070D", "671775E6AF279B42", "C9A46DDC082BAEE0", "0ACB63B00DEE1B37", "0306B53F46955E3E", "8BAB6AA783EE0508", "015AD27DAC83E698", "20B34B5CA0E66973", "FDFA7692A141612F", "179C182ADEF1070D", "671775E6AF279B42", "C9A46DDC082BAEE0", "0ACB63B00DEE1B37", "0306B53F46955E3E"], "td": [], "rt": ["KMB_1A", "KMB_11B", "KMB_17"]}, "7380707A36C032B9": {"data": {"stop": "7380707A36C032B9", "name_en": "TING FU STREET, KWUN TONG", "name_tc": "觀塘定富街", "name_sc": "观塘定富街", "lat": "22.316142", "long": "114.216218"}, "alt": ["001496"], "td": ["707", "4087", "8216", "8217", "8218"], "rt": ["KMB_1A", "KMB_3D", "KMB_11C", "KMB_11D", "KMB_16", "KMB_671", "KMB_671X", "KMB_N3D"]}, "52AE04E9C3E77BE1": {"data": {"stop": "52AE04E9C3E77BE1", "name_en": "LOWER NGAU TAU KOK ESTATE", "name_tc": "牛頭角下邨", "name_sc": "牛头角下邨", "lat": "22.320039", "long": "114.214468"}, "alt": [], "td": ["1119", "1138", "1151", "8315", "10000194", "20001060", "20012050", "20014914", "20015910"], "rt": ["KMB_1A", "KMB_3D", "KMB_6P", "KMB_16", "KMB_62X", "KMB_252X", "KMB_258D", "KMB_258P", "KMB_259D", "KMB_267X", "KMB_296C", "KMB_N3D"]}, "C2AA10A9751D3692": {"data": {"stop": "C2AA10A9751D3692", "name_en": "TELFORD GARDENS", "name_tc": "德福花園", "name_sc": "德福花园", "lat": "22.322128", "long": "114.214269"}, "alt": [], "td": ["4067", "10256", "13169", "10000278", "20001115", "20001957", "20001966"], "rt": ["KMB_1A", "KMB_13P", "KMB_16"]}, "8570495BD7C63C02": {"data": {"stop": "8570495BD7C63C02", "name_en": "KOWLOON BAY  STATION", "name_tc": "九龍灣站", "name_sc": "九龙湾站", "lat": "22.324805", "long": "114.214033"}, "alt": ["001505"], "td": ["711", "1140", "8317", "8318", "13169", "13228"], "rt": ["KMB_1A", "KMB_6P", "KMB_11D", "KMB_13P", "KMB_16", "KMB_296C", "KMB_671", "KMB_671X"]}, "0A87C29A2B460C96": {"data": {"stop": "0A87C29A2B460C96", "name_en": "KAI YIP ESTATE", "name_tc": "啟業邨", "name_sc": "启业邨", "lat": "22.330394", "long": "114.209803"}, "alt": [], "td": ["826", "1141", "1150", "4084", "10000052"], "rt": ["KMB_1A", "KMB_2A", "KMB_2X", "KMB_13D", "KMB_16", "KMB_296C"]}, "ED5554C57CF0061C": {"data": {"stop": "ED5554C57CF0061C", "name_en": "RICHLAND GARDENS", "name_tc": "麗晶花園", "name_sc": "丽晶花园", "lat": "22.332530", "long": "114.206872"}, "alt": [], "td": ["797", "798", "801", "825", "20000960", "20016641", "20016642"], "rt": ["KMB_1A", "KMB_2A", "KMB_2X", "KMB_13D", "KMB_13P", "KMB_16", "KMB_16P", "KMB_27X", "KMB_296C", "KMB_296P"]}, "4D9419874306D82F": {"data": {"stop": "4D9419874306D82F", "name_en": "RHYTHM GARDEN", "name_tc": "采頤花園", "name_sc": "采颐花园", "lat": "22.334909", "long": "114.201967"}, "alt": [], "td": ["12355", "10000048", "20002010", "20002394", "20008514", "20010579", "20010587", "20012117", "20012737", "20015016", "20015246", "20015300"], "rt": ["KMB_1A", "KMB_2A", "KMB_2X", "KMB_13D", "KMB_16", "KMB_16P", "KMB_16X", "KMB_17", "KMB_27", "KMB_27X", "KMB_42", "KMB_98C", "KMB_98E", "KMB_98S", "KMB_213D", "KMB_296C", "KMB_296P", "KMB_298C", "KMB_298X"]}, "D625B0997C3DBCFE": {"data": {"stop": "D625B0997C3DBCFE", "name_en": "THE LATITUDE", "name_tc": "譽．港灣", "name_sc": "誉．港湾", "lat": "22.332000", "long": "114.196917"}, "alt": [], "td": ["4072", "4081", "20014205", "20015114"], "rt": ["KMB_1A", "KMB_2A", "KMB_11D", "KMB_13D", "KMB_16", "KMB_16P", "KMB_16X", "KMB_24", "KMB_27", "KMB_27X", "KMB_42", "KMB_98C", "KMB_98S", "KMB_213D", "KMB_296C", "KMB_298C", "KMB_298X"]}, "904DEAF7441E3BB8": {"data": {"stop": "904DEAF7441E3BB8", "name_en": "KOWLOON CITY BBI - REGAL ORIENTAL HOTEL (B5)", "name_tc": "九龍城轉車站- 富豪東方酒店(B5)", "name_sc": "九龙城转车站- 富豪东方酒店(B5)", "lat": "22.327305", "long": "114.190821"}, "alt": ["904DEAF7441E3BB8", "904DEAF7441E3BB8", "E9468D2AE13C3F39", "B5BAED26BD56AC16", "C5F7AF8D65B268E4", "67727D444E2EC42B", "D477F40E64BFF7D8", "D64C1350EE61A2AD", "8BB1DE68DB8316D3", "3A9CDC9BA93346E2", "E9468D2AE13C3F39", "B5BAED26BD56AC16", "C5F7AF8D65B268E4", "67727D444E2EC42B", "D477F40E64BFF7D8", "D64C1350EE61A2AD", "8BB1DE68DB8316D3", "3A9CDC9BA93346E2"], "td": [], "rt": ["KMB_1A", "KMB_9"]}, "3161D898CD89AA38": {"data": {"stop": "3161D898CD89AA38", "name_en": "HAU WONG ROAD", "name_tc": "侯王道", "name_sc": "侯王道", "lat": "22.327437", "long": "114.188845"}, "alt": [], "td": ["4074", "4079", "8101", "20017182"], "rt": ["KMB_1A", "KMB_24", "KMB_27", "KMB_95", "KMB_213D"]}, "DCFF4041D0C0ACF8": {"data": {"stop": "DCFF4041D0C0ACF8", "name_en": "STAR FERRY", "name_tc": "尖沙咀碼頭", "name_sc": "尖沙咀码头", "lat": "22.293816", "long": "114.168797"}, "alt": [], "td": ["4025"], "rt": ["KMB_1A", "KMB_2", "KMB_5", "KMB_5A", "KMB_5C", "KMB_5P", "KMB_5X", "KMB_6", "KMB_8", "KMB_28", "KMB_92R", "KMB_234P", "KMB_HK1"]}, "8D804CFD9C7B9042": {"data": {"stop": "8D804CFD9C7B9042", "name_en": "STAR FERRY", "name_tc": "尖沙咀碼頭", "name_sc": "尖沙咀码头", "lat": "22.294321", "long": "114.169189"}, "alt": [], "td": ["4025"], "rt": ["KMB_1A"]}, "AB0E13408BFA1055": {"data": {"stop": "AB0E13408BFA1055", "name_en": "PRINCE EDWARD STATION", "name_tc": "太子站", "name_sc": "太子站", "lat": "22.324645", "long": "114.169348"}, "alt": [], "td": ["211", "4016", "4034", "9077", "20014246"], "rt": ["KMB_1A"]}, "2FA93329F924968F": {"data": {"stop": "2FA93329F924968F", "name_en": "BEVERLY VILLAS", "name_tc": "碧華花園", "name_sc": "碧华花园", "lat": "22.327265", "long": "114.182745"}, "alt": [], "td": ["4078", "20014164", "20014203", "20017062"], "rt": ["KMB_1A", "KMB_6D", "KMB_6P", "KMB_42", "KMB_98E"]}, "12B08A64756B780B": {"data": {"stop": "12B08A64756B780B", "name_en": "HAU WONG ROAD", "name_tc": "侯王道", "name_sc": "侯王道", "lat": "22.327760", "long": "114.188940"}, "alt": [], "td": ["4074", "4079", "8101", "20017182"], "rt": ["KMB_1A", "KMB_6D", "KMB_6P", "KMB_11D", "KMB_42"]}, "0AB522DFFCD4CD4F": {"data": {"stop": "0AB522DFFCD4CD4F", "name_en": "KOWLOON CITY BBI - REGAL ORIENTAL HOTEL (A6)", "name_tc": "九龍城轉車站- 富豪東方酒店(A6)", "name_sc": "九龙城转车站- 富豪东方酒店(A6)", "lat": "22.329126", "long": "114.192519"}, "alt": ["0AB522DFFCD4CD4F", "0AB522DFFCD4CD4F", "E99D3F96A9F7B5EB", "7F25B423230F5BEE", "BB172B3A5DAC85A4", "6AEFD1C261E8E4D8", "EBE826ABDCE44F0C", "448C1B8AECA89A6E", "A46B6AC99CE8722E", "20A7DAD5A8294964", "E99D3F96A9F7B5EB", "7F25B423230F5BEE", "BB172B3A5DAC85A4", "6AEFD1C261E8E4D8", "EBE826ABDCE44F0C", "448C1B8AECA89A6E", "A46B6AC99CE8722E", "20A7DAD5A8294964"], "td": [], "rt": ["KMB_1A", "KMB_11X", "KMB_213D"]}, "7210357910C44570": {"data": {"stop": "7210357910C44570", "name_en": "THE LATITUDE", "name_tc": "譽．港灣", "name_sc": "誉．港湾", "lat": "22.333055", "long": "114.196691"}, "alt": [], "td": ["4072", "4081", "20014205", "20015114"], "rt": ["KMB_1A", "KMB_2A", "KMB_2X", "KMB_11B", "KMB_11D", "KMB_11X", "KMB_13D", "KMB_17", "KMB_213D"]}, "A1C65E46464147A0": {"data": {"stop": "A1C65E46464147A0", "name_en": "RHYTHM GARDEN", "name_tc": "采頤花園", "name_sc": "采颐花园", "lat": "22.335085", "long": "114.201694"}, "alt": ["001574"], "td": ["12355", "10000048", "20002010", "20002394", "20008514", "20010579", "20010587", "20012117", "20012737", "20015016", "20015246", "20015300"], "rt": ["KMB_1A", "KMB_11B", "KMB_11D", "KMB_17", "KMB_93K", "KMB_107", "KMB_296C", "KMB_296P", "KMB_297", "KMB_N293"]}, "100E6F60BAC1BDEB": {"data": {"stop": "100E6F60BAC1BDEB", "name_en": "PING SHEK ESTATE", "name_tc": "坪石邨", "name_sc": "坪石邨", "lat": "22.333185", "long": "114.207227"}, "alt": ["001503"], "td": ["823", "1075", "13046", "10000186", "20001117", "20012351"], "rt": ["KMB_1A", "KMB_2A", "KMB_2X", "KMB_9", "KMB_11B", "KMB_11D", "KMB_13D", "KMB_14", "KMB_15", "KMB_16", "KMB_17", "KMB_28", "KMB_101", "KMB_101R", "KMB_111P"]}, "23AF5995FEBCA8E6": {"data": {"stop": "23AF5995FEBCA8E6", "name_en": "KAI YIP ESTATE", "name_tc": "啟業邨", "name_sc": "启业邨", "lat": "22.330675", "long": "114.210388"}, "alt": ["001504"], "td": ["826", "1141", "1150", "4084", "10000052"], "rt": ["KMB_1A", "KMB_3D", "KMB_9", "KMB_11B", "KMB_11C", "KMB_17", "KMB_89B", "KMB_89C", "KMB_89X", "KMB_101", "KMB_101R", "KMB_606A", "KMB_671", "KMB_N3D"]}, "8C09B3648DCDAF3C": {"data": {"stop": "8C09B3648DCDAF3C", "name_en": "KOWLOON BAY STATION", "name_tc": "九龍灣站", "name_sc": "九龙湾站", "lat": "22.325547", "long": "114.214339"}, "alt": ["001505"], "td": ["711", "1140", "8317", "8318", "13169", "13228"], "rt": ["KMB_1A", "KMB_3D", "KMB_11C", "KMB_17", "KMB_101", "KMB_101R", "KMB_N3D"]}, "D530D698BC181839": {"data": {"stop": "D530D698BC181839", "name_en": "LOWER NGAU TAU KOK ESTATE", "name_tc": "牛頭角下邨", "name_sc": "牛头角下邨", "lat": "22.321874", "long": "114.214633"}, "alt": ["001506"], "td": ["1119", "1138", "1151", "8315", "10000194", "20001060", "20012050", "20014914", "20015910"], "rt": ["KMB_1A", "KMB_11B", "KMB_11C", "KMB_89C", "KMB_671"]}, "4D3C6D74F6AE8C7D": {"data": {"stop": "4D3C6D74F6AE8C7D", "name_en": "KWUN TONG ROAD SITTING-OUT AREA", "name_tc": "觀塘道休憩處", "name_sc": "观塘道休憩处", "lat": "22.317953", "long": "114.215055"}, "alt": [], "td": ["1152"], "rt": ["KMB_1A", "KMB_3D", "KMB_11B", "KMB_11C", "KMB_17", "KMB_40", "KMB_40A", "KMB_40B", "KMB_40P", "KMB_89C", "KMB_89X", "KMB_93K", "KMB_889", "KMB_N3D"]}, "9627881F2180C5AB": {"data": {"stop": "9627881F2180C5AB", "name_en": "MILLENNIUM CITY (U4)", "name_tc": "創紀之城 (U4)", "name_sc": "创纪之城 (U4)", "lat": "22.314414", "long": "114.221390"}, "alt": ["9627881F2180C5AB", "9627881F2180C5AB", "F59AE1D39E8B2E29", "2DDD1CB69E981669", "38B86AC474D1060D", "0644E10571B8CA12", "5FE12AC5660F89D6", "A880D4A7E3310AEB", "2DDD1CB69E981669", "38B86AC474D1060D", "A880D4A7E3310AEB"], "td": [], "rt": ["KMB_1A", "KMB_11B", "KMB_11C", "KMB_17", "KMB_89C"]}, "2437897A21642D85": {"data": {"stop": "2437897A21642D85", "name_en": "KWUN TONG BBI - KWUN TONG TOWN CENTRE (T3)", "name_tc": "觀塘轉車站 - 觀塘市中心 (T3)", "name_sc": "观塘转车站 - 观塘市中心 (T3)", "lat": "22.313063", "long": "114.224870"}, "alt": ["2437897A21642D85", "2437897A21642D85", "0B8C52E4C34E3B64", "80B56E2C7719DAF4", "EB177E95B39626AE", "5FD7848A339751B6", "14CF94DF66FCD0C8", "F2127FD781019971", "0B8C52E4C34E3B64", "80B56E2C7719DAF4", "EB177E95B39626AE", "5FD7848A339751B6", "14CF94DF66FCD0C8", "F2127FD781019971"], "td": [], "rt": ["KMB_1A", "KMB_11B", "KMB_11C", "KMB_13M"]}, "17A8BC1197F76422": {"data": {"stop": "17A8BC1197F76422", "name_en": "WO LOK ESTATE", "name_tc": "和樂邨", "name_sc": "和乐邨", "lat": "22.316165", "long": "114.226172"}, "alt": [], "td": ["4062", "4090", "8233", "20014091", "20016599", "20016600"], "rt": ["KMB_1A"]}, "D3FEF85E4DAEEE4E": {"data": {"stop": "D3FEF85E4DAEEE4E", "name_en": "SAU NGA ROAD PLAYGROUND", "name_tc": "秀雅道遊樂場", "name_sc": "秀雅道游乐场", "lat": "22.320222", "long": "114.228251"}, "alt": ["003042"], "td": ["4091", "7094", "20015069", "20015070", "20015149", "20016597"], "rt": ["KMB_1A", "KMB_13M", "KMB_93A", "KMB_601", "KMB_601P", "KMB_N601"]}, "C3201264CC8E5C5D": {"data": {"stop": "C3201264CC8E5C5D", "name_en": "HIU LAI COURT", "name_tc": "曉麗苑", "name_sc": "晓丽苑", "lat": "22.319078", "long": "114.229349"}, "alt": ["003043"], "td": ["4060", "4092", "20014090", "20014093", "20015071", "20015087", "20015579"], "rt": ["KMB_1A", "KMB_13M", "KMB_13X", "KMB_93A", "KMB_601", "KMB_601P", "KMB_N293", "KMB_N601"]}, "C8830886D41FB5FA": {"data": {"stop": "C8830886D41FB5FA", "name_en": "HIU KWONG STREET RECREATION GROUND", "name_tc": "曉光街遊樂場", "name_sc": "晓光街游乐场", "lat": "22.317021", "long": "114.231554"}, "alt": ["003044"], "td": ["4093"], "rt": ["KMB_1A", "KMB_13M", "KMB_13X", "KMB_93A", "KMB_601", "KMB_601P", "KMB_N293", "KMB_N601"]}, "9615800192F1667C": {"data": {"stop": "9615800192F1667C", "name_en": "LEUNG SHEK CHEE COLLEGE", "name_tc": "梁式芝書院", "name_sc": "梁式芝书院", "lat": "22.314896", "long": "114.233811"}, "alt": ["003045"], "td": ["4059", "4094", "20015577"], "rt": ["KMB_1A", "KMB_13X", "KMB_601", "KMB_601P", "KMB_N601"]}, "D17050E8964504BB": {"data": {"stop": "D17050E8964504BB", "name_en": "SAU MING HOUSE", "name_tc": "秀明樓", "name_sc": "秀明楼", "lat": "22.315934", "long": "114.233922"}, "alt": ["001719"], "td": ["1021", "1034", "20007670", "20014134"], "rt": ["KMB_1A", "KMB_11C", "KMB_11X", "KMB_13D", "KMB_13P", "KMB_13X", "KMB_14D", "KMB_88", "KMB_95", "KMB_213D", "KMB_290A", "KMB_601", "KMB_601P", "KMB_613A", "KMB_N216", "KMB_N290", "KMB_N601"]}, "04DDF4F7F1C74876": {"data": {"stop": "04DDF4F7F1C74876", "name_en": "SAU FU HOUSE", "name_tc": "秀富樓", "name_sc": "秀富楼", "lat": "22.317096", "long": "114.232170"}, "alt": ["001720"], "td": ["1035", "20003072", "20014149"], "rt": ["KMB_1A", "KMB_11C", "KMB_11X", "KMB_13D", "KMB_13P", "KMB_13X", "KMB_14D", "KMB_88", "KMB_95", "KMB_213D", "KMB_290A", "KMB_601", "KMB_601P", "KMB_613A", "KMB_N216", "KMB_N290", "KMB_N601"]}, "25BD7B50919AA221": {"data": {"stop": "25BD7B50919AA221", "name_en": "STAR FERRY", "name_tc": "尖沙咀碼頭", "name_sc": "尖沙咀码头", "lat": "22.294304", "long": "114.169112"}, "alt": [], "td": ["4025"], "rt": ["KMB_2", "KMB_8"]}, "68106C827BF891AB": {"data": {"stop": "68106C827BF891AB", "name_en": "KOWLOON MOSQUE (N9)", "name_tc": "九龍清真寺 (N9)", "name_sc": "九龙清真寺 (N9)", "lat": "22.298819", "long": "114.171954"}, "alt": ["68106C827BF891AB", "68106C827BF891AB", "B0028A481BF4ACC7", "D066F149BE3A1D28", "62958067B9C06318", "B0028A481BF4ACC7", "D066F149BE3A1D28", "62958067B9C06318"], "td": [], "rt": ["KMB_2", "KMB_3X", "KMB_9", "KMB_N213", "KMB_N216", "KMB_N241"]}, "20D0C9CBE2BC9451": {"data": {"stop": "20D0C9CBE2BC9451", "name_en": "BOWRING STREET YAU MA TEI (N21)", "name_tc": "油麻地寶靈街 (N21)", "name_sc": "油麻地宝灵街 (N21)", "lat": "22.304634", "long": "114.171578"}, "alt": ["6C34AE386C779E0B", "6C34AE386C779E0B", "20D0C9CBE2BC9451", "20D0C9CBE2BC9451", "B0F64FFFBECE8AA4", "B0F64FFFBECE8AA4"], "td": [], "rt": ["KMB_2", "KMB_3X", "KMB_9", "KMB_203C"]}, "EBB057754E3423CE": {"data": {"stop": "EBB057754E3423CE", "name_en": "NANKING STREET YAU MA TEI (N25)", "name_tc": "油麻地南京街 (N25)", "name_sc": "油麻地南京街 (N25)", "lat": "22.306382", "long": "114.171414"}, "alt": ["EBB057754E3423CE", "EBB057754E3423CE", "2F281B3C90B46763", "E5E7111594073DE2", "2F281B3C90B46763", "E5E7111594073DE2"], "td": [], "rt": ["KMB_2", "KMB_6", "KMB_N241"]}, "A8E63F70F386C05A": {"data": {"stop": "A8E63F70F386C05A", "name_en": "MAN MING LANE YAU MA TEI (N44)", "name_tc": "油麻地文明里 (N44)", "name_sc": "油麻地文明里 (N44)", "lat": "22.311527", "long": "114.170785"}, "alt": ["775FC7E2B86C4E3F", "775FC7E2B86C4E3F", "A8E63F70F386C05A", "A8E63F70F386C05A", "E50D6F218BC33CD0", "A93947027435EBAD", "088B858E4B54D8AC", "E50D6F218BC33CD0", "A93947027435EBAD", "088B858E4B54D8AC"], "td": [], "rt": ["KMB_2", "KMB_6", "KMB_N241", "KMB_N41X"]}, "E173F2DA030C6AAB": {"data": {"stop": "E173F2DA030C6AAB", "name_en": "PITT STREET YAU MA TEI (N49)", "name_tc": "油麻地碧街 (N49)", "name_sc": "油麻地碧街 (N49)", "lat": "22.314146", "long": "114.170265"}, "alt": ["001549", "E173F2DA030C6AAB", "E173F2DA030C6AAB", "3A43E432D0588F79", "1E0C8A961881DE1D", "FC46B100B69573B7", "A76BB6FCB881AF5C", "3A43E432D0588F79", "1E0C8A961881DE1D", "FC46B100B69573B7", "A76BB6FCB881AF5C"], "td": [], "rt": ["KMB_2", "KMB_6", "KMB_6C", "KMB_6F", "KMB_70S", "KMB_270S", "KMB_N122", "KMB_N213", "KMB_N216", "KMB_N241", "KMB_N41X", "KMB_X6C"]}, "6E2A7A2CD29F9216": {"data": {"stop": "6E2A7A2CD29F9216", "name_en": "NELSON STREET MONG KOK (N60)", "name_tc": "旺角奶路臣街 (N60)", "name_sc": "旺角奶路臣街 (N60)", "lat": "22.317813", "long": "114.169549"}, "alt": ["001553", "221A18C37331E6FD", "221A18C37331E6FD", "6E2A7A2CD29F9216", "6E2A7A2CD29F9216", "E6124D0EDF568E1E", "258EDF9D3C3FD200", "A6ACEA5D8F32521D", "D948E91F481784FF", "E6124D0EDF568E1E", "258EDF9D3C3FD200", "A6ACEA5D8F32521D", "D948E91F481784FF"], "td": [], "rt": ["KMB_2", "KMB_6F", "KMB_70S", "KMB_N122", "KMB_N241", "KMB_N41X"]}, "30FEA8A7071EDE48": {"data": {"stop": "30FEA8A7071EDE48", "name_en": "BUTE STREET MONG KOK (N72)", "name_tc": "旺角弼街 (N72)", "name_sc": "旺角弼街 (N72)", "lat": "22.321778", "long": "114.168699"}, "alt": ["30FEA8A7071EDE48", "30FEA8A7071EDE48", "99256D08CF861BA5", "11ED493F674F4888", "D7C46496C9C7B7BA", "99256D08CF861BA5", "11ED493F674F4888", "D7C46496C9C7B7BA"], "td": [], "rt": ["KMB_2", "KMB_2A", "KMB_30X", "KMB_35A", "KMB_35X", "KMB_45", "KMB_46", "KMB_234X", "KMB_238X"]}, "557B9185722A07DB": {"data": {"stop": "557B9185722A07DB", "name_en": "TONG MI ROAD MONG KOK", "name_tc": "旺角塘尾道", "name_sc": "旺角塘尾道", "lat": "22.324403", "long": "114.165727"}, "alt": ["001516"], "td": ["197"], "rt": ["KMB_2", "KMB_2A", "KMB_117", "KMB_118", "KMB_118P", "KMB_N118"]}, "DBAAC5A97DAFD138": {"data": {"stop": "DBAAC5A97DAFD138", "name_en": "SHEK KIP MEI STREET", "name_tc": "石硤尾街", "name_sc": "石硖尾街", "lat": "22.326937", "long": "114.162385"}, "alt": [], "td": ["839", "4103", "4199", "9109", "20000746", "20006915"], "rt": ["KMB_2", "KMB_2A", "KMB_32"]}, "6A6E44D4207221C1": {"data": {"stop": "6A6E44D4207221C1", "name_en": "KWEILIN STREET SHAM SHUI PO", "name_tc": "深水埗桂林街", "name_sc": "深水埗桂林街", "lat": "22.328589", "long": "114.160248"}, "alt": [], "td": ["199", "9103", "9104", "9105", "9106"], "rt": ["KMB_2", "KMB_2A", "KMB_32"]}, "6156B488BEB726C6": {"data": {"stop": "6156B488BEB726C6", "name_en": "SHAM SHUI PO PARK", "name_tc": "深水埗公園", "name_sc": "深水埗公园", "lat": "22.330675", "long": "114.157715"}, "alt": [], "td": ["9101", "20018353"], "rt": ["KMB_2", "KMB_2A", "KMB_32"]}, "A8762A74241E8027": {"data": {"stop": "A8762A74241E8027", "name_en": "LAI KOK ESTATE", "name_tc": "麗閣邨", "name_sc": "丽阁邨", "lat": "22.333118", "long": "114.155983"}, "alt": ["002595"], "td": ["204", "828", "829", "9220", "9221"], "rt": ["KMB_2", "KMB_2A", "KMB_118", "KMB_118P", "KMB_905A", "KMB_N118"]}, "667FDF4DEF4D2BAE": {"data": {"stop": "667FDF4DEF4D2BAE", "name_en": "CHEUNG SHA WAN STATION", "name_tc": "長沙灣站", "name_sc": "长沙湾站", "lat": "22.335413", "long": "114.157855"}, "alt": ["001602"], "td": ["205", "741", "742", "9225", "20016997", "20018348", "20018352"], "rt": ["KMB_2", "KMB_2A", "KMB_112", "KMB_118", "KMB_118P", "KMB_N118", "KMB_N122"]}, "63B3694BF40FBEC6": {"data": {"stop": "63B3694BF40FBEC6", "name_en": "PO HEI COURT", "name_tc": "寶熙苑", "name_sc": "宝熙苑", "lat": "22.337426", "long": "114.159322"}, "alt": ["002813"], "td": ["4113", "20013795"], "rt": ["KMB_2", "KMB_6P", "KMB_112", "KMB_N122"]}, "F54744E6F5CDBC1A": {"data": {"stop": "F54744E6F5CDBC1A", "name_en": "BEGONIA HOUSE, SO UK ESTATE", "name_tc": "蘇屋邨海棠樓", "name_sc": "苏屋邨海棠楼", "lat": "22.340113", "long": "114.157544"}, "alt": ["002808"], "td": ["4114"], "rt": ["KMB_2", "KMB_6P", "KMB_112"]}, "7605CC9BA97A5F61": {"data": {"stop": "7605CC9BA97A5F61", "name_en": "CHEUNG SHA WAN (SO UK ESTATE) BUS TERMINUS", "name_tc": "長沙灣(蘇屋邨)巴士總站", "name_sc": "长沙湾(苏屋邨)巴士总站", "lat": "22.341085", "long": "114.158665"}, "alt": ["7605CC9BA97A5F61", "7605CC9BA97A5F61", "44AF4BBD0B0BB3A0", "44AF4BBD0B0BB3A0"], "td": ["4097"], "rt": ["KMB_2"]}, "1B710D8F35AF94E7": {"data": {"stop": "1B710D8F35AF94E7", "name_en": "KEI OI PRIMARY SCHOOL", "name_tc": "基愛小學", "name_sc": "基爱小学", "lat": "22.339400", "long": "114.160575"}, "alt": ["002812"], "td": ["4098"], "rt": ["KMB_2", "KMB_112"]}, "76D5C1E2B23E8743": {"data": {"stop": "76D5C1E2B23E8743", "name_en": "TONKIN STREET", "name_tc": "東京街", "name_sc": "东京街", "lat": "22.336993", "long": "114.159665"}, "alt": ["002814"], "td": ["205", "4099", "4197", "4207", "9220", "9221", "9226", "9227", "9250", "9252", "12563", "13367", "20003101", "20004013", "20004143", "20013756", "20016996", "20016997", "20017005", "20017006", "20018346", "20018347", "20018348", "20018353", "20018354", "20019864"], "rt": ["KMB_2", "KMB_2A", "KMB_112"]}, "587ACF2E1135D8B6": {"data": {"stop": "587ACF2E1135D8B6", "name_en": "CHEUNG SHA WAN STATION", "name_tc": "長沙灣站", "name_sc": "长沙湾站", "lat": "22.335046", "long": "114.157997"}, "alt": [], "td": ["205", "741", "742", "9225", "20016997", "20018348", "20018352"], "rt": ["KMB_2", "KMB_2A"]}, "E3B464760B6ADF30": {"data": {"stop": "E3B464760B6ADF30", "name_en": "LAI KOK ESTATE", "name_tc": "麗閣邨", "name_sc": "丽阁邨", "lat": "22.333467", "long": "114.156602"}, "alt": ["001601"], "td": ["204", "828", "829", "9220", "9221"], "rt": ["KMB_2", "KMB_2A", "KMB_117", "KMB_214P", "KMB_296C"]}, "ADA4B4F4B604885B": {"data": {"stop": "ADA4B4F4B604885B", "name_en": "LAI LO HOUSE", "name_tc": "麗蘿樓", "name_sc": "丽萝楼", "lat": "22.331656", "long": "114.156667"}, "alt": ["001511"], "td": ["829", "20003128"], "rt": ["KMB_2", "KMB_2A", "KMB_2X", "KMB_32", "KMB_42", "KMB_117", "KMB_214", "KMB_296C"]}, "2CAFD3D60CAA7F5B": {"data": {"stop": "2CAFD3D60CAA7F5B", "name_en": "PEI HO STREET SHAM SHUI PO", "name_tc": "深水埗北河街", "name_sc": "深水埗北河街", "lat": "22.328783", "long": "114.160429"}, "alt": ["001512"], "td": ["208", "756", "830", "972", "4102", "9217"], "rt": ["KMB_2", "KMB_44", "KMB_70S", "KMB_117"]}, "B577AC1835FA7995": {"data": {"stop": "B577AC1835FA7995", "name_en": "SHEK KIP MEI STREET", "name_tc": "石硤尾街", "name_sc": "石硖尾街", "lat": "22.327234", "long": "114.162427"}, "alt": ["001513"], "td": ["839", "4103", "4199", "9109", "20000746", "20006915"], "rt": ["KMB_2", "KMB_6F", "KMB_44", "KMB_70S", "KMB_117"]}, "2F4939964761E1FF": {"data": {"stop": "2F4939964761E1FF", "name_en": "POPLAR STREET SHAM SHUI PO", "name_tc": "深水埗白楊街", "name_sc": "深水埗白杨街", "lat": "22.324793", "long": "114.165560"}, "alt": ["001514"], "td": ["4104"], "rt": ["KMB_2", "KMB_2A", "KMB_2X", "KMB_6F", "KMB_44", "KMB_70S", "KMB_117", "KMB_296C"]}, "1030A4E612B75901": {"data": {"stop": "1030A4E612B75901", "name_en": "ARRAN STREET MONG KOK", "name_tc": "旺角鴉蘭街", "name_sc": "旺角鸦兰街", "lat": "22.323315", "long": "114.167469"}, "alt": ["001515"], "td": ["4105", "10225"], "rt": ["KMB_2", "KMB_2A", "KMB_2X", "KMB_6F", "KMB_44", "KMB_70S", "KMB_117", "KMB_296C"]}, "36AABE317D2F7A0B": {"data": {"stop": "36AABE317D2F7A0B", "name_en": "PITT STREET YAU MA TEI (S30)", "name_tc": "油麻地碧街 (S30)", "name_sc": "油麻地碧街 (S30)", "lat": "22.313592", "long": "114.170657"}, "alt": ["36AABE317D2F7A0B", "36AABE317D2F7A0B", "8748720365CEA134", "10754E414E9B86F4", "97CE87CF035B0E10", "8748720365CEA134", "10754E414E9B86F4", "97CE87CF035B0E10"], "td": [], "rt": ["KMB_2", "KMB_6", "KMB_9", "KMB_203S"]}, "CD7C28BDF71C00D7": {"data": {"stop": "CD7C28BDF71C00D7", "name_en": "TAK SHING STREET TSIM SHA TSUI (S44)", "name_tc": "尖沙咀德成街 (S44)", "name_sc": "尖沙咀德成街 (S44)", "lat": "22.304279", "long": "114.171799"}, "alt": ["A6AED77D365E7011", "A6AED77D365E7011", "CD7C28BDF71C00D7", "CD7C28BDF71C00D7", "E10A0960D4E103B1", "A37F8CF766FCF9F3", "E10A0960D4E103B1", "A37F8CF766FCF9F3"], "td": [], "rt": ["KMB_2", "KMB_6", "KMB_9", "KMB_234X"]}, "BA95025DE2FB9878": {"data": {"stop": "BA95025DE2FB9878", "name_en": "LOK WAH BUS TERMINUS", "name_tc": "樂華總站", "name_sc": "乐华总站", "lat": "22.320944", "long": "114.220499"}, "alt": ["BA95025DE2FB9878", "BA95025DE2FB9878", "56E62E497943CFAA", "60301BE9A4D23BAC", "29E5BCA5DC430F85", "56E62E497943CFAA", "60301BE9A4D23BAC", "29E5BCA5DC430F85"], "td": ["10249"], "rt": ["KMB_2A"]}, "C9F3531BB5050372": {"data": {"stop": "C9F3531BB5050372", "name_en": "LOK NGA COURT", "name_tc": "樂雅苑", "name_sc": "乐雅苑", "lat": "22.321831", "long": "114.220956"}, "alt": ["001667"], "td": ["1115", "1121", "20007874", "20015292", "20015293"], "rt": ["KMB_2A", "KMB_619", "KMB_619P", "KMB_N619"]}, "F140654A12BA066A": {"data": {"stop": "F140654A12BA066A", "name_en": "NGAU TAU KOK BUS TERMINUS", "name_tc": "牛頭角總站", "name_sc": "牛头角总站", "lat": "22.323044", "long": "114.216814"}, "alt": ["002584", "F140654A12BA066A", "F140654A12BA066A", "9D5EC5BD0A116058", "449F6831A832F1F3", "F4B32081147E47C0", "099263A4B4AAEDFB", "9D5EC5BD0A116058", "449F6831A832F1F3", "F4B32081147E47C0", "099263A4B4AAEDFB"], "td": ["8320", "20007395"], "rt": ["KMB_2A", "KMB_224R", "KMB_225R", "KMB_606A"]}, "44DE41D495197976": {"data": {"stop": "44DE41D495197976", "name_en": "AMOY GARDENS", "name_tc": "淘大花園", "name_sc": "淘大花园", "lat": "22.324482", "long": "114.215384"}, "alt": [], "td": ["7079", "8319", "20000994", "20002189", "20002192", "20013860", "20014067", "20016962", "20016963"], "rt": ["KMB_2A", "KMB_2X", "KMB_6D", "KMB_13D"]}, "E9468D2AE13C3F39": {"data": {"stop": "E9468D2AE13C3F39", "name_en": "KOWLOON CITY BBI - REGAL ORIENTAL HOTEL (B2)", "name_tc": "九龍城轉車站- 富豪東方酒店(B2)", "name_sc": "九龙城转车站- 富豪东方酒店(B2)", "lat": "22.327473", "long": "114.191106"}, "alt": ["904DEAF7441E3BB8", "904DEAF7441E3BB8", "E9468D2AE13C3F39", "E9468D2AE13C3F39", "B5BAED26BD56AC16", "C5F7AF8D65B268E4", "67727D444E2EC42B", "D477F40E64BFF7D8", "D64C1350EE61A2AD", "8BB1DE68DB8316D3", "3A9CDC9BA93346E2", "B5BAED26BD56AC16", "C5F7AF8D65B268E4", "67727D444E2EC42B", "D477F40E64BFF7D8", "D64C1350EE61A2AD", "8BB1DE68DB8316D3", "3A9CDC9BA93346E2"], "td": [], "rt": ["KMB_2A", "KMB_13D", "KMB_16", "KMB_98C", "KMB_298X"]}, "EC45A4372B661DDE": {"data": {"stop": "EC45A4372B661DDE", "name_en": "ARGYLE STREET PLAYGROUND", "name_tc": "亞皆老街球場", "name_sc": "亚皆老街球场", "lat": "22.326589", "long": "114.188776"}, "alt": [], "td": ["4185", "7029", "7055"], "rt": ["KMB_2A", "KMB_98C", "KMB_298X"]}, "D7EDDEA5A942843B": {"data": {"stop": "D7EDDEA5A942843B", "name_en": "KOWLOON CITY POLICE STATION", "name_tc": "九龍城警署", "name_sc": "九龙城警署", "lat": "22.324574", "long": "114.185031"}, "alt": [], "td": ["7030"], "rt": ["KMB_2A", "KMB_9", "KMB_13D", "KMB_16", "KMB_16P", "KMB_16X", "KMB_27X", "KMB_98C", "KMB_98S", "KMB_203E", "KMB_296C", "KMB_298C", "KMB_298X"]}, "A7F679945ED1DB31": {"data": {"stop": "A7F679945ED1DB31", "name_en": "THE ASTRID", "name_tc": "雅麗居", "name_sc": "雅丽居", "lat": "22.323148", "long": "114.182050"}, "alt": [], "td": ["7031"], "rt": ["KMB_2A", "KMB_98C", "KMB_98S", "KMB_296C", "KMB_298C", "KMB_298X"]}, "88DF3B36087267EB": {"data": {"stop": "88DF3B36087267EB", "name_en": "KOWLOON HOSPITAL", "name_tc": "九龍醫院", "name_sc": "九龙医院", "lat": "22.321766", "long": "114.179182"}, "alt": [], "td": ["770", "4226", "7032", "7051", "20014782", "20014784", "20015258", "20015259", "20015618", "20015619"], "rt": ["KMB_2A", "KMB_98C", "KMB_98S", "KMB_298C", "KMB_298X"]}, "8C44D48B9BAAB774": {"data": {"stop": "8C44D48B9BAAB774", "name_en": "YEE ON COURT", "name_tc": "怡安閣", "name_sc": "怡安阁", "lat": "22.320458", "long": "114.176111"}, "alt": [], "td": ["7033", "20014247"], "rt": ["KMB_2A", "KMB_9", "KMB_16", "KMB_16P", "KMB_18", "KMB_45", "KMB_98C", "KMB_98S", "KMB_203E", "KMB_241X", "KMB_298C", "KMB_298X"]}, "300D1812E3A085C3": {"data": {"stop": "300D1812E3A085C3", "name_en": "PEACE AVENUE", "name_tc": "太平道", "name_sc": "太平道", "lat": "22.319953", "long": "114.173591"}, "alt": [], "td": ["7034", "20000912"], "rt": ["KMB_2A", "KMB_9", "KMB_13D", "KMB_13P", "KMB_16", "KMB_16P", "KMB_16X", "KMB_18", "KMB_27X", "KMB_45", "KMB_98C", "KMB_98S", "KMB_203E", "KMB_241X", "KMB_291P", "KMB_296C", "KMB_298C", "KMB_298X"]}, "71429CEA8EA90958": {"data": {"stop": "71429CEA8EA90958", "name_en": "MONG KOK STATION", "name_tc": "旺角站", "name_sc": "旺角站", "lat": "22.319454", "long": "114.170828"}, "alt": [], "td": ["1339", "4047", "7035", "9071", "12367"], "rt": ["KMB_2A", "KMB_58X"]}, "325D8BC721F823F1": {"data": {"stop": "325D8BC721F823F1", "name_en": "TOMB PARK", "name_tc": "古墓公園", "name_sc": "古墓公园", "lat": "22.337790", "long": "114.160062"}, "alt": [], "td": ["9250"], "rt": ["KMB_2A"]}, "111216E506D8E575": {"data": {"stop": "111216E506D8E575", "name_en": "LAI YEUNG HOUSE, LEI CHENG UK ESTATE", "name_tc": "李鄭屋邨禮讓樓", "name_sc": "李郑屋邨礼让楼", "lat": "22.339749", "long": "114.159979"}, "alt": [], "td": ["9254"], "rt": ["KMB_2A"]}, "27809B866B307D24": {"data": {"stop": "27809B866B307D24", "name_en": "JOCKEY CLUB CLINIC CHEUNG SHA WAN", "name_tc": "長沙灣賽馬會診療所", "name_sc": "长沙湾赛马会诊疗所", "lat": "22.340717", "long": "114.158592"}, "alt": [], "td": ["13062"], "rt": ["KMB_2A"]}, "FC29C8A636233BB4": {"data": {"stop": "FC29C8A636233BB4", "name_en": "AZALEA HOUSE SO UK ESTATE", "name_tc": "蘇屋邨杜鵑樓", "name_sc": "苏屋邨杜鹃楼", "lat": "22.339536", "long": "114.156628"}, "alt": ["002845"], "td": ["9246", "13315", "20013754", "20017008"], "rt": ["KMB_2A", "KMB_6P", "KMB_N122"]}, "D355B700FF30B3D7": {"data": {"stop": "D355B700FF30B3D7", "name_en": "HING WAH STREET CHEUNG SHA WAN (X28)", "name_tc": "長沙灣興華街 (X28)", "name_sc": "长沙湾兴华街 (X28)", "lat": "22.337744", "long": "114.152954"}, "alt": ["002846", "D355B700FF30B3D7", "D355B700FF30B3D7", "6564600C3B5BFB65", "B7C0A83790F94D99", "6564600C3B5BFB65", "B7C0A83790F94D99"], "td": [], "rt": ["KMB_2A", "KMB_2X", "KMB_30X", "KMB_33A", "KMB_36A", "KMB_36B", "KMB_37", "KMB_86C", "KMB_234X", "KMB_238X", "KMB_296P", "KMB_N122", "KMB_N241"]}, "6762DEA1B89E6354": {"data": {"stop": "6762DEA1B89E6354", "name_en": "CHEUNG LAI STREET CHEUNG SHA WAN (X45)", "name_tc": "長沙灣長荔街 (X45)", "name_sc": "长沙湾长荔街 (X45)", "lat": "22.336786", "long": "114.147023"}, "alt": ["001434", "6762DEA1B89E6354", "6762DEA1B89E6354", "B6ECF261EB79418C", "01E580BD435E9301", "20FADDD5EB4002B3", "06566A7FE3C6466A", "B6ECF261EB79418C", "01E580BD435E9301", "20FADDD5EB4002B3", "06566A7FE3C6466A"], "td": [], "rt": ["KMB_2A", "KMB_2X", "KMB_6", "KMB_6D", "KMB_40A", "KMB_86", "KMB_98C", "KMB_98E", "KMB_98S", "KMB_102", "KMB_102P", "KMB_102R", "KMB_171", "KMB_171A", "KMB_171P", "KMB_240X", "KMB_272P", "KMB_293S", "KMB_296P", "KMB_298C", "KMB_298X", "KMB_904", "KMB_905", "KMB_905A", "KMB_N122", "KMB_N171"]}, "3B68D3389F83FE39": {"data": {"stop": "3B68D3389F83FE39", "name_en": "MEI FOO BUS TERMINUS (T2)", "name_tc": "美孚巴士總站 (T2)", "name_sc": "美孚巴士总站 (T2)", "lat": "22.337253", "long": "114.139988"}, "alt": ["3B68D3389F83FE39", "3B68D3389F83FE39", "3856383C8A22904A", "FEF6F77B236DA7A5", "D6E8E2C3BD483D7F", "16F732FAF7057965", "D32CCF88E6FD8621", "CBB9FC4A0C13979B", "A588A5F294B4BEFB", "3856383C8A22904A", "FEF6F77B236DA7A5", "D6E8E2C3BD483D7F", "16F732FAF7057965", "D32CCF88E6FD8621", "CBB9FC4A0C13979B", "A588A5F294B4BEFB"], "td": [], "rt": ["KMB_2A", "KMB_2X", "KMB_N269"]}, "ACA7282A66D0A29B": {"data": {"stop": "ACA7282A66D0A29B", "name_en": "TAI NAN WEST STREET", "name_tc": "大南西街", "name_sc": "大南西街", "lat": "22.336102", "long": "114.149431"}, "alt": ["002816"], "td": ["9097", "9240", "12435", "20019870"], "rt": ["KMB_2A", "KMB_2X", "KMB_6C", "KMB_6X", "KMB_32", "KMB_42", "KMB_904", "KMB_X6C"]}, "0C44BAE327DB4A8A": {"data": {"stop": "0C44BAE327DB4A8A", "name_en": "YU CHAU WEST STREET", "name_tc": "汝州西街", "name_sc": "汝州西街", "lat": "22.338965", "long": "114.149766"}, "alt": [], "td": ["9239", "20013751"], "rt": ["KMB_2A", "KMB_6C", "KMB_31B", "KMB_36A"]}, "2B0183A25DA19AE3": {"data": {"stop": "2B0183A25DA19AE3", "name_en": "KWONG CHEUNG STREET", "name_tc": "光昌街", "name_sc": "光昌街", "lat": "22.339349", "long": "114.150865"}, "alt": [], "td": ["4194", "4195", "9223"], "rt": ["KMB_2A", "KMB_6D"]}, "70AED81BA5AE0B49": {"data": {"stop": "70AED81BA5AE0B49", "name_en": "CHEUNG WAH STREET", "name_tc": "昌華街", "name_sc": "昌华街", "lat": "22.339842", "long": "114.154686"}, "alt": ["002841"], "td": ["740", "9245"], "rt": ["KMB_2A", "KMB_6D", "KMB_N122", "KMB_N241"]}, "8F5CC6D12F796BC0": {"data": {"stop": "8F5CC6D12F796BC0", "name_en": "AZALEA HOUSE SO UK ESTATE", "name_tc": "蘇屋邨杜鵑樓", "name_sc": "苏屋邨杜鹃楼", "lat": "22.339640", "long": "114.156695"}, "alt": [], "td": ["9246", "13315", "20013754", "20017008"], "rt": ["KMB_2A"]}, "310E4FE9B7419F88": {"data": {"stop": "310E4FE9B7419F88", "name_en": "LEI CHENG UK SHOPPING CENTRE", "name_tc": "李鄭屋商場", "name_sc": "李郑屋商场", "lat": "22.338358", "long": "114.158329"}, "alt": [], "td": ["13316"], "rt": ["KMB_2A"]}, "9364661BEAC5B8D0": {"data": {"stop": "9364661BEAC5B8D0", "name_en": "PEI HO STREET SHAM SHUI PO", "name_tc": "深水埗北河街", "name_sc": "深水埗北河街", "lat": "22.328543", "long": "114.160750"}, "alt": [], "td": ["208", "756", "830", "972", "4102", "9217"], "rt": ["KMB_2A", "KMB_2X", "KMB_296C"]}, "8D386F5D210C3439": {"data": {"stop": "8D386F5D210C3439", "name_en": "SHEK KIP MEI STREET", "name_tc": "石硤尾街", "name_sc": "石硖尾街", "lat": "22.327142", "long": "114.162550"}, "alt": [], "td": ["839", "4103", "4199", "9109", "20000746", "20006915"], "rt": ["KMB_2A", "KMB_2X", "KMB_12A", "KMB_36B", "KMB_42", "KMB_46", "KMB_296C"]}, "BD06457129045F1D": {"data": {"stop": "BD06457129045F1D", "name_en": "MONG KOK STATION", "name_tc": "旺角站", "name_sc": "旺角站", "lat": "22.319696", "long": "114.170788"}, "alt": [], "td": ["1339", "4047", "7035", "9071", "12367"], "rt": ["KMB_2A", "KMB_2X"]}, "A72D15160CC3AF31": {"data": {"stop": "A72D15160CC3AF31", "name_en": "CLP POWER ARGYLE STREET", "name_tc": "亞皆老街中電", "name_sc": "亚皆老街中电", "lat": "22.320532", "long": "114.175816"}, "alt": [], "td": ["7050"], "rt": ["KMB_2A", "KMB_13D", "KMB_16", "KMB_16P", "KMB_24", "KMB_27", "KMB_95", "KMB_98C", "KMB_98S", "KMB_213D", "KMB_298C", "KMB_298X", "KMB_N213", "KMB_N216"]}, "8D5C58075D3C1003": {"data": {"stop": "8D5C58075D3C1003", "name_en": "KOWLOON HOSPITAL", "name_tc": "九龍醫院", "name_sc": "九龙医院", "lat": "22.322801", "long": "114.180560"}, "alt": [], "td": ["770", "4226", "7032", "7051", "20014782", "20014784", "20015258", "20015259", "20015618", "20015619"], "rt": ["KMB_2A", "KMB_9", "KMB_13D", "KMB_16", "KMB_16P", "KMB_24", "KMB_27", "KMB_203E", "KMB_213D", "KMB_N213", "KMB_N216"]}, "B0DDF2CD704116C8": {"data": {"stop": "B0DDF2CD704116C8", "name_en": "HOSPITAL AUTHORITY BUILDING", "name_tc": "醫院管理局", "name_sc": "医院管理局", "lat": "22.323790", "long": "114.182797"}, "alt": [], "td": ["7052", "20011368", "20014783", "20015259"], "rt": ["KMB_2A", "KMB_2X", "KMB_9", "KMB_13D", "KMB_16", "KMB_16P", "KMB_16X", "KMB_24", "KMB_27", "KMB_27X", "KMB_95", "KMB_98C", "KMB_98S", "KMB_203E", "KMB_213D", "KMB_296C", "KMB_296P", "KMB_298C", "KMB_298X", "KMB_N213", "KMB_N216"]}, "6C1DEF32B8CB92C4": {"data": {"stop": "6C1DEF32B8CB92C4", "name_en": "HONG KONG EYE HOSPITAL", "name_tc": "香港眼科醫院", "name_sc": "香港眼科医院", "lat": "22.324908", "long": "114.184866"}, "alt": [], "td": ["7053", "20000916", "20015260"], "rt": ["KMB_2A", "KMB_2X", "KMB_9", "KMB_13D", "KMB_16", "KMB_16P", "KMB_16X", "KMB_24", "KMB_27", "KMB_27X", "KMB_95", "KMB_98C", "KMB_98S", "KMB_203E", "KMB_213D", "KMB_296C", "KMB_296P", "KMB_298C", "KMB_298X", "KMB_N213", "KMB_N216"]}, "161B32AD4C6996AD": {"data": {"stop": "161B32AD4C6996AD", "name_en": "EVANGEL HOSPITAL", "name_tc": "播道醫院", "name_sc": "播道医院", "lat": "22.326104", "long": "114.187300"}, "alt": [], "td": ["7054"], "rt": ["KMB_2A", "KMB_9", "KMB_13D", "KMB_16", "KMB_24", "KMB_27", "KMB_203E", "KMB_N213", "KMB_N216"]}, "6965D1D655C2DD5F": {"data": {"stop": "6965D1D655C2DD5F", "name_en": "ARGYLE STREET PLAYGROUND", "name_tc": "亞皆老街球場", "name_sc": "亚皆老街球场", "lat": "22.327009", "long": "114.188955"}, "alt": [], "td": ["4185", "7029", "7055"], "rt": ["KMB_2A", "KMB_9", "KMB_13D", "KMB_16", "KMB_24", "KMB_27", "KMB_95", "KMB_98C", "KMB_203E", "KMB_213D", "KMB_293S", "KMB_298X", "KMB_N213", "KMB_N216", "KMB_N293"]}, "E99D3F96A9F7B5EB": {"data": {"stop": "E99D3F96A9F7B5EB", "name_en": "KOWLOON CITY BBI - REGAL ORIENTAL HOTEL (A5)", "name_tc": "九龍城轉車站- 富豪東方酒店(A5)", "name_sc": "九龙城转车站- 富豪东方酒店(A5)", "lat": "22.328723", "long": "114.192106"}, "alt": ["001572", "0AB522DFFCD4CD4F", "0AB522DFFCD4CD4F", "E99D3F96A9F7B5EB", "E99D3F96A9F7B5EB", "7F25B423230F5BEE", "BB172B3A5DAC85A4", "6AEFD1C261E8E4D8", "EBE826ABDCE44F0C", "448C1B8AECA89A6E", "A46B6AC99CE8722E", "20A7DAD5A8294964", "7F25B423230F5BEE", "BB172B3A5DAC85A4", "6AEFD1C261E8E4D8", "EBE826ABDCE44F0C", "448C1B8AECA89A6E", "A46B6AC99CE8722E", "20A7DAD5A8294964"], "td": [], "rt": ["KMB_2A", "KMB_6D", "KMB_6P", "KMB_13D", "KMB_28", "KMB_101", "KMB_101R", "KMB_293S"]}, "3D717F0365D5505B": {"data": {"stop": "3D717F0365D5505B", "name_en": "KING TAI STREET", "name_tc": "景泰街", "name_sc": "景泰街", "lat": "22.334279", "long": "114.199287"}, "alt": ["002976"], "td": ["822", "4082"], "rt": ["KMB_2A", "KMB_5A", "KMB_24", "KMB_28", "KMB_101", "KMB_108", "KMB_N213"]}, "F60097D67F33DC0C": {"data": {"stop": "F60097D67F33DC0C", "name_en": "KAI YIP ESTATE", "name_tc": "啟業邨", "name_sc": "启业邨", "lat": "22.330767", "long": "114.210263"}, "alt": ["001504"], "td": ["826", "1141", "1150", "4084", "10000052"], "rt": ["KMB_2A", "KMB_2X", "KMB_5M", "KMB_6D", "KMB_13D", "KMB_28", "KMB_93K", "KMB_296C", "KMB_N121", "KMB_N293"]}, "5B49CF04EAB59906": {"data": {"stop": "5B49CF04EAB59906", "name_en": "AMOY GARDENS", "name_tc": "淘大花園", "name_sc": "淘大花园", "lat": "22.324215", "long": "114.215869"}, "alt": ["003031"], "td": ["7079", "8319", "20000994", "20002189", "20002192", "20013860", "20014067", "20016962", "20016963"], "rt": ["KMB_2A", "KMB_2X", "KMB_28", "KMB_N121", "KMB_N293"]}, "921C19F6147C74A6": {"data": {"stop": "921C19F6147C74A6", "name_en": "CHUN WAH COURT", "name_tc": "振華苑", "name_sc": "振华苑", "lat": "22.322426", "long": "114.218357"}, "alt": ["001659"], "td": ["7089"], "rt": ["KMB_2A", "KMB_13X", "KMB_23M", "KMB_28", "KMB_28B", "KMB_93P", "KMB_213X", "KMB_619", "KMB_N213", "KMB_N619"]}, "47C3597662B81B47": {"data": {"stop": "47C3597662B81B47", "name_en": "LOK NGA COURT", "name_tc": "樂雅苑", "name_sc": "乐雅苑", "lat": "22.322730", "long": "114.220872"}, "alt": ["001660"], "td": ["1115", "1121", "20007874", "20015292", "20015293"], "rt": ["KMB_2A", "KMB_13X", "KMB_23M", "KMB_28", "KMB_28B", "KMB_93P", "KMB_213X", "KMB_619", "KMB_N213", "KMB_N619"]}, "785985F99EE00AE4": {"data": {"stop": "785985F99EE00AE4", "name_en": "CHUK YUEN ESTATE BUS TERMINUS", "name_tc": "竹園邨巴士總站", "name_sc": "竹园邨巴士总站", "lat": "22.345524", "long": "114.192199"}, "alt": ["785985F99EE00AE4", "785985F99EE00AE4"], "td": ["10000181"], "rt": ["KMB_2B"]}, "2C1366DA10099003": {"data": {"stop": "2C1366DA10099003", "name_en": "RAINBOW PRIMARY SCHOOL", "name_tc": "天虹小學", "name_sc": "天虹小学", "lat": "22.345145", "long": "114.189677"}, "alt": ["001456"], "td": ["793", "4002", "20013960"], "rt": ["KMB_2B", "KMB_11C", "KMB_103"]}, "74C71F2AE4947E5D": {"data": {"stop": "74C71F2AE4947E5D", "name_en": "WANG YIP HOUSE", "name_tc": "宏業樓", "name_sc": "宏业楼", "lat": "22.340529", "long": "114.188797"}, "alt": [], "td": ["1373", "4043", "20015434"], "rt": ["KMB_2B", "KMB_2F", "KMB_3C", "KMB_75X"]}, "968575D69434DBB8": {"data": {"stop": "968575D69434DBB8", "name_en": "WANG FU HOUSE", "name_tc": "宏富樓", "name_sc": "宏富楼", "lat": "22.340583", "long": "114.186556"}, "alt": [], "td": ["1374"], "rt": ["KMB_2B", "KMB_2F", "KMB_3C", "KMB_75X"]}, "210CF8389F782535": {"data": {"stop": "210CF8389F782535", "name_en": "H.K. BAPTIST UNIVERSITY", "name_tc": "香港浸會大學", "name_sc": "香港浸会大学", "lat": "22.339108", "long": "114.182487"}, "alt": ["001488"], "td": ["788", "4221", "20014158", "20014159"], "rt": ["KMB_2B", "KMB_2F", "KMB_3C", "KMB_7", "KMB_85", "KMB_85A", "KMB_85B", "KMB_103", "KMB_208"]}, "6652A2FE695AD8C2": {"data": {"stop": "6652A2FE695AD8C2", "name_en": "KENT ROAD", "name_tc": "根德道", "name_sc": "根德道", "lat": "22.339922", "long": "114.176677"}, "alt": [], "td": ["9128", "20000673", "20014488"], "rt": ["KMB_2B", "KMB_2F", "KMB_80M", "KMB_86C", "KMB_281M"]}, "9B3566445BDAD548": {"data": {"stop": "9B3566445BDAD548", "name_en": "SHEK KIP MEI PARK", "name_tc": "石硤尾公園", "name_sc": "石硖尾公园", "lat": "22.339246", "long": "114.171103"}, "alt": [], "td": ["1350", "1376"], "rt": ["KMB_2B", "KMB_2F", "KMB_86C"]}, "A8E94E7F793372BD": {"data": {"stop": "A8E94E7F793372BD", "name_en": "CHAK YAN CENTRE", "name_tc": "則仁中心", "name_sc": "则仁中心", "lat": "22.339781", "long": "114.167522"}, "alt": [], "td": ["1349", "1377"], "rt": ["KMB_2B", "KMB_2F", "KMB_86C"]}, "E275C17540BCEF37": {"data": {"stop": "E275C17540BCEF37", "name_en": "SHEK KIP MEI FIRE STATION", "name_tc": "石硤尾消防局", "name_sc": "石硖尾消防局", "lat": "22.338696", "long": "114.167401"}, "alt": [], "td": ["9184", "9185", "20000752"], "rt": ["KMB_2B", "KMB_2D", "KMB_2F", "KMB_86", "KMB_86A", "KMB_86C", "KMB_87B", "KMB_214", "KMB_214P", "KMB_N214"]}, "6D1087ACF14C15A9": {"data": {"stop": "6D1087ACF14C15A9", "name_en": "SHUI TIN HOUSE PAK TIN ESTATE", "name_tc": "白田邨瑞田樓", "name_sc": "白田邨瑞田楼", "lat": "22.335930", "long": "114.169080"}, "alt": [], "td": ["9179", "9180", "10000200"], "rt": ["KMB_2B", "KMB_2F", "KMB_86", "KMB_86A", "KMB_86C", "KMB_87B", "KMB_214", "KMB_214P", "KMB_N214"]}, "46ABE64DB9C82DDF": {"data": {"stop": "46ABE64DB9C82DDF", "name_en": "WONG TAI SHAN MEMORIAL COLLEGE", "name_tc": "黃棣珊紀念中學", "name_sc": "黄棣珊纪念中学", "lat": "22.334730", "long": "114.168440"}, "alt": [], "td": ["9177"], "rt": ["KMB_2B", "KMB_2F", "KMB_86", "KMB_86A", "KMB_86C", "KMB_87B", "KMB_214", "KMB_214P", "KMB_N214"]}, "9F914539576C53A5": {"data": {"stop": "9F914539576C53A5", "name_en": "SHEK KIP MEI SHOPPING CENTRE", "name_tc": "石硤尾商場", "name_sc": "石硖尾商场", "lat": "22.332023", "long": "114.166014"}, "alt": [], "td": ["9175", "9192"], "rt": ["KMB_2B", "KMB_2E", "KMB_2F", "KMB_86C", "KMB_87B", "KMB_214", "KMB_214P", "KMB_N214"]}, "9215DDE04780BDC3": {"data": {"stop": "9215DDE04780BDC3", "name_en": "SHAM SHUI PO POST OFFICE", "name_tc": "深水埗郵政局", "name_sc": "深水埗邮政局", "lat": "22.331958", "long": "114.163579"}, "alt": [], "td": ["9234"], "rt": ["KMB_2B", "KMB_2F", "KMB_86A", "KMB_214", "KMB_214P", "KMB_N214"]}, "064E5D9FE6973F23": {"data": {"stop": "064E5D9FE6973F23", "name_en": "CAMP STREET", "name_tc": "營盤街", "name_sc": "营盘街", "lat": "22.334154", "long": "114.160755"}, "alt": [], "td": ["206", "4206", "20013794"], "rt": ["KMB_2B", "KMB_2F", "KMB_72", "KMB_86A"]}, "E766002A5624AFB6": {"data": {"stop": "E766002A5624AFB6", "name_en": "WING LUNG STREET", "name_tc": "永隆街", "name_sc": "永隆街", "lat": "22.336401", "long": "114.157818"}, "alt": [], "td": ["9236", "9248", "9249", "20003139", "20012347"], "rt": ["KMB_2B", "KMB_2F", "KMB_72", "KMB_86A"]}, "7430D83B73E26B7C": {"data": {"stop": "7430D83B73E26B7C", "name_en": "UN CHAU SHOPPING CENTRE", "name_tc": "元州商場", "name_sc": "元州商场", "lat": "22.337732", "long": "114.156102"}, "alt": [], "td": ["4208", "4209", "20012348", "20018349"], "rt": ["KMB_2B", "KMB_2F", "KMB_72", "KMB_86A"]}, "0CE37125BC509E5D": {"data": {"stop": "0CE37125BC509E5D", "name_en": "CHEUNG SHA WAN PATH (X31)", "name_tc": "長沙灣徑 (X31)", "name_sc": "长沙湾径 (X31)", "lat": "22.338203", "long": "114.151281"}, "alt": ["0CE37125BC509E5D", "0CE37125BC509E5D", "A1AA846971415968", "B294A8638290F5C2", "A468A530A8C84E11", "0E718C4DB85C8005", "EEBBD352B7F16E3F", "A1AA846971415968", "B294A8638290F5C2", "A468A530A8C84E11", "0E718C4DB85C8005", "EEBBD352B7F16E3F"], "td": [], "rt": ["KMB_2B", "KMB_2F", "KMB_86A", "KMB_214", "KMB_N214"]}, "B6ECF261EB79418C": {"data": {"stop": "B6ECF261EB79418C", "name_en": "CHEUNG LAI STREET CHEUNG SHA WAN (X46)", "name_tc": "長沙灣長荔街 (X46)", "name_sc": "长沙湾长荔街 (X46)", "lat": "22.336684", "long": "114.146749"}, "alt": ["6762DEA1B89E6354", "6762DEA1B89E6354", "B6ECF261EB79418C", "B6ECF261EB79418C", "01E580BD435E9301", "20FADDD5EB4002B3", "06566A7FE3C6466A", "01E580BD435E9301", "20FADDD5EB4002B3", "06566A7FE3C6466A"], "td": [], "rt": ["KMB_2B", "KMB_2F", "KMB_40", "KMB_72", "KMB_86A", "KMB_86C", "KMB_214", "KMB_214P", "KMB_N214"]}, "2C1F7467E446B212": {"data": {"stop": "2C1F7467E446B212", "name_en": "CHEUNG SHA WAN BUS TERMINUS", "name_tc": "長沙灣巴士總站", "name_sc": "长沙湾巴士总站", "lat": "22.337071", "long": "114.148586"}, "alt": ["2C1F7467E446B212", "2C1F7467E446B212", "1CBA941164585ABC", "42DD929DA7838903", "69741C71C234C871", "C11E1332DE4D4C5E", "1CBA941164585ABC", "42DD929DA7838903", "69741C71C234C871", "C11E1332DE4D4C5E"], "td": ["865"], "rt": ["KMB_2B"]}, "80F5C6317F17C099": {"data": {"stop": "80F5C6317F17C099", "name_en": "KWONG CHEUNG STREET", "name_tc": "光昌街", "name_sc": "光昌街", "lat": "22.339322", "long": "114.150789"}, "alt": [], "td": ["4194", "4195", "9223"], "rt": ["KMB_2B", "KMB_2F", "KMB_2P"]}, "C9261749DE3F7FEF": {"data": {"stop": "C9261749DE3F7FEF", "name_en": "CHEUNG WAH STREET", "name_tc": "昌華街", "name_sc": "昌华街", "lat": "22.339902", "long": "114.154486"}, "alt": [], "td": ["740", "9245"], "rt": ["KMB_2B", "KMB_2F", "KMB_2P"]}, "5B5ABCFBD1F60FEC": {"data": {"stop": "5B5ABCFBD1F60FEC", "name_en": "WING LUNG STREET", "name_tc": "永隆街", "name_sc": "永隆街", "lat": "22.337757", "long": "114.157378"}, "alt": [], "td": ["9236", "9248", "9249", "20003139", "20012347"], "rt": ["KMB_2B", "KMB_2F", "KMB_2P"]}, "0FC0EE0AEA556A4C": {"data": {"stop": "0FC0EE0AEA556A4C", "name_en": "PRATAS STREET", "name_tc": "東沙島街", "name_sc": "东沙岛街", "lat": "22.336247", "long": "114.159317"}, "alt": [], "td": ["9251", "9252"], "rt": ["KMB_2B", "KMB_2F", "KMB_2P"]}, "251112E838705DCD": {"data": {"stop": "251112E838705DCD", "name_en": "KIU KIANG STREET", "name_tc": "九江街", "name_sc": "九江街", "lat": "22.334718", "long": "114.161294"}, "alt": [], "td": ["9229", "9253"], "rt": ["KMB_2B", "KMB_2F", "KMB_2P"]}, "229C618DE131245A": {"data": {"stop": "229C618DE131245A", "name_en": "MEI SANG HOUSE SHEK KIP MEI ESTATE", "name_tc": "石硤尾邨美笙樓", "name_sc": "石硖尾邨美笙楼", "lat": "22.333562", "long": "114.165756"}, "alt": [], "td": ["12439"], "rt": ["KMB_2B", "KMB_6D", "KMB_6P", "KMB_86", "KMB_86A", "KMB_286A"]}, "414700CC27B0F9DC": {"data": {"stop": "414700CC27B0F9DC", "name_en": "MEI SHING HOUSE SHEK KIP MEI ESTATE", "name_tc": "石硤尾邨美盛樓", "name_sc": "石硖尾邨美盛楼", "lat": "22.333340", "long": "114.166865"}, "alt": [], "td": ["12440"], "rt": ["KMB_2B", "KMB_2F", "KMB_214"]}, "43BFFB46B4D209FC": {"data": {"stop": "43BFFB46B4D209FC", "name_en": "SHUI TIN HOUSE PAK TIN ESTATE", "name_tc": "白田邨瑞田樓", "name_sc": "白田邨瑞田楼", "lat": "22.335588", "long": "114.168822"}, "alt": [], "td": ["9179", "9180", "10000200"], "rt": ["KMB_2B", "KMB_2F", "KMB_214"]}, "094457650286AA67": {"data": {"stop": "094457650286AA67", "name_en": "SHEK KIP MEI FIRE STATION", "name_tc": "石硤尾消防局", "name_sc": "石硖尾消防局", "lat": "22.338766", "long": "114.166833"}, "alt": [], "td": ["9184", "9185", "20000752"], "rt": ["KMB_2B", "KMB_2D", "KMB_2F", "KMB_86", "KMB_86A", "KMB_86C", "KMB_87B", "KMB_214", "KMB_286A"]}, "9E16397100F502B9": {"data": {"stop": "9E16397100F502B9", "name_en": "CHAK YAN CENTRE", "name_tc": "則仁中心", "name_sc": "则仁中心", "lat": "22.339973", "long": "114.166933"}, "alt": [], "td": ["1349", "1377"], "rt": ["KMB_2B", "KMB_2F", "KMB_86C", "KMB_203S"]}, "121D3CCF6A82532F": {"data": {"stop": "121D3CCF6A82532F", "name_en": "SHEK KIP MEI PARK", "name_tc": "石硤尾公園", "name_sc": "石硖尾公园", "lat": "22.339434", "long": "114.170165"}, "alt": [], "td": ["1350", "1376"], "rt": ["KMB_2B", "KMB_2F", "KMB_86C"]}, "90DC2AE9EBAF2658": {"data": {"stop": "90DC2AE9EBAF2658", "name_en": "EDE ROAD", "name_tc": "義德道", "name_sc": "义德道", "lat": "22.340149", "long": "114.178327"}, "alt": [], "td": ["4242", "20003149", "20003150"], "rt": ["KMB_2B", "KMB_2F", "KMB_7", "KMB_86C"]}, "4E037679702BBCBC": {"data": {"stop": "4E037679702BBCBC", "name_en": "KAM SHING ROAD", "name_tc": "金城道", "name_sc": "金城道", "lat": "22.339203", "long": "114.181225"}, "alt": [], "td": ["4243", "20000742", "20013970"], "rt": ["KMB_2B", "KMB_2F", "KMB_3C", "KMB_7", "KMB_85", "KMB_85A", "KMB_85B"]}, "AEBDE6434969EED9": {"data": {"stop": "AEBDE6434969EED9", "name_en": "KA KEUNG COURT", "name_tc": "嘉強苑", "name_sc": "嘉强苑", "lat": "22.340844", "long": "114.184982"}, "alt": [], "td": ["1353", "20010403", "20017125"], "rt": ["KMB_2B", "KMB_2F", "KMB_3C", "KMB_75X"]}, "B1293E41AE9CB55F": {"data": {"stop": "B1293E41AE9CB55F", "name_en": "WANG CHIU HOUSE", "name_tc": "宏照樓", "name_sc": "宏照楼", "lat": "22.340757", "long": "114.187592"}, "alt": [], "td": ["1354"], "rt": ["KMB_2B", "KMB_2F", "KMB_3C", "KMB_75X"]}, "0095D35FB96EC6DF": {"data": {"stop": "0095D35FB96EC6DF", "name_en": "CHAK ON ESTATE BUS TERMINUS", "name_tc": "澤安邨巴士總站", "name_sc": "泽安邨巴士总站", "lat": "22.340478", "long": "114.164610"}, "alt": ["0095D35FB96EC6DF", "0095D35FB96EC6DF", "D59A5DE108F804DF", "53CB550BC9E1B80C", "D59A5DE108F804DF", "53CB550BC9E1B80C"], "td": ["9164"], "rt": ["KMB_2D"]}, "FDBA2A7F174E08F5": {"data": {"stop": "FDBA2A7F174E08F5", "name_en": "PAK TIN (NORTH) BUS TERMINUS", "name_tc": "白田 (北) 巴士總站", "name_sc": "白田 (北) 巴士总站", "lat": "22.336429", "long": "114.168068"}, "alt": ["003428", "FDBA2A7F174E08F5", "FDBA2A7F174E08F5"], "td": [], "rt": ["KMB_2D", "KMB_104"]}, "930E7A721D133F71": {"data": {"stop": "930E7A721D133F71", "name_en": "BLOCK 9 PAK TIN ESTATE", "name_tc": "白田邨第9座", "name_sc": "白田邨第9座", "lat": "22.336923", "long": "114.165405"}, "alt": ["002826"], "td": ["10254", "13219", "20012010"], "rt": ["KMB_2D", "KMB_2E", "KMB_104"]}, "75832B86D4FA0C91": {"data": {"stop": "75832B86D4FA0C91", "name_en": "Pak Tin Public Transport Interchange", "name_tc": "白田巴士總站", "name_sc": "白田巴士总站", "lat": "22.336188", "long": "114.165914"}, "alt": ["75832B86D4FA0C91", "75832B86D4FA0C91", "708EB21B10D1588F", "DAB449CCCBA93789", "241A8AC2A2889D05", "708EB21B10D1588F", "DAB449CCCBA93789", "241A8AC2A2889D05"], "td": ["10000103"], "rt": ["KMB_2D"]}, "13757F4073A660F5": {"data": {"stop": "13757F4073A660F5", "name_en": "MEI YICK HOUSE SHEK KIP MEI ESTATE", "name_tc": "石硤尾邨美益樓", "name_sc": "石硖尾邨美益楼", "lat": "22.334410", "long": "114.165061"}, "alt": [], "td": ["9187"], "rt": ["KMB_2D"]}, "598CB8743A812BCC": {"data": {"stop": "598CB8743A812BCC", "name_en": "SHEK KIP MEI SHOPPING CENTRE", "name_tc": "石硤尾商場", "name_sc": "石硖尾商场", "lat": "22.331741", "long": "114.166081"}, "alt": [], "td": ["9175", "9192"], "rt": ["KMB_2D"]}, "90C3A9DB72F244DE": {"data": {"stop": "90C3A9DB72F244DE", "name_en": "SHEK KIP MEI STATION", "name_tc": "石硤尾站", "name_sc": "石硖尾站", "lat": "22.331837", "long": "114.167987"}, "alt": ["002830"], "td": ["9194", "9195"], "rt": ["KMB_2D", "KMB_6D", "KMB_6P", "KMB_104"]}, "81631C6B0F2D1843": {"data": {"stop": "81631C6B0F2D1843", "name_en": "MAN LOK HOUSE", "name_tc": "民樂樓", "name_sc": "民乐楼", "lat": "22.331648", "long": "114.169578"}, "alt": [], "td": ["9196", "20013727"], "rt": ["KMB_2D", "KMB_6D", "KMB_6P"]}, "7476BFC6F6B5D869": {"data": {"stop": "7476BFC6F6B5D869", "name_en": "CONCORDIA LUTHERAN SCHOOL", "name_tc": "協同中學", "name_sc": "协同中学", "lat": "22.330661", "long": "114.171935"}, "alt": ["002832"], "td": ["284", "9198", "9199", "9203", "20013729"], "rt": ["KMB_2D", "KMB_6D", "KMB_6P", "KMB_104"]}, "F7FB52860229BBAB": {"data": {"stop": "F7FB52860229BBAB", "name_en": "TAI HANG TUNG RECREATION GROUND", "name_tc": "大坑東遊樂場", "name_sc": "大坑东游乐场", "lat": "22.328210", "long": "114.172215"}, "alt": ["002833"], "td": ["9200", "9201", "9202", "20000433", "20017172"], "rt": ["KMB_2D", "KMB_6D", "KMB_6P", "KMB_104"]}, "E4B6BF6D835723A0": {"data": {"stop": "E4B6BF6D835723A0", "name_en": "EARL STREET", "name_tc": "伯爵街", "name_sc": "伯爵街", "lat": "22.326435", "long": "114.180472"}, "alt": [], "td": ["4012", "9121", "20014786"], "rt": ["KMB_2D", "KMB_10", "KMB_208"]}, "7CC71E7933DD9625": {"data": {"stop": "7CC71E7933DD9625", "name_en": "LA SALLE COLLEGE", "name_tc": "喇沙書院", "name_sc": "喇沙书院", "lat": "22.328512", "long": "114.181843"}, "alt": [], "td": ["9143", "9144", "20014163"], "rt": ["KMB_2D", "KMB_10", "KMB_208"]}, "D34CCDD12A1BC57F": {"data": {"stop": "D34CCDD12A1BC57F", "name_en": "LANCASHIRE ROAD", "name_tc": "蘭開夏道", "name_sc": "兰开夏道", "lat": "22.329812", "long": "114.181880"}, "alt": [], "td": ["9135", "9142", "20014193", "20014201", "20014486"], "rt": ["KMB_2D", "KMB_10", "KMB_208"]}, "EE3EA981F3D6485D": {"data": {"stop": "EE3EA981F3D6485D", "name_en": "COLLEGE ROAD", "name_tc": "書院道", "name_sc": "书院道", "lat": "22.329153", "long": "114.184761"}, "alt": [], "td": ["9146", "9147", "20017180"], "rt": ["KMB_2D", "KMB_10"]}, "F159C47896D53738": {"data": {"stop": "F159C47896D53738", "name_en": "LION ROCK ROAD", "name_tc": "獅子石道", "name_sc": "狮子石道", "lat": "22.329045", "long": "114.187875"}, "alt": [], "td": ["8098", "20014165", "20014212", "20015022"], "rt": ["KMB_2D", "KMB_10"]}, "0F38AE1F1CAFF245": {"data": {"stop": "0F38AE1F1CAFF245", "name_en": "NAM KOK ROAD", "name_tc": "南角道", "name_sc": "南角道", "lat": "22.328990", "long": "114.189568"}, "alt": [], "td": ["8096", "8099", "20012111", "20014166", "20014191"], "rt": ["KMB_2D", "KMB_10"]}, "642A6178B23761B6": {"data": {"stop": "642A6178B23761B6", "name_en": "TAK KU LING ROAD", "name_tc": "打鼓嶺道", "name_sc": "打鼓岭道", "lat": "22.329861", "long": "114.191437"}, "alt": [], "td": ["8094", "20014167", "20015113", "20015164"], "rt": ["KMB_2D", "KMB_10"]}, "87D6AA0759B66B69": {"data": {"stop": "87D6AA0759B66B69", "name_en": "TUNG TAU ESTATE", "name_tc": "東頭邨", "name_sc": "东头邨", "lat": "22.333321", "long": "114.192796"}, "alt": [], "td": ["4186", "10253", "13070", "20012116", "20014168"], "rt": ["KMB_2D"]}, "A811A4AAF18AFAFF": {"data": {"stop": "A811A4AAF18AFAFF", "name_en": "LUNG MOON HOUSE", "name_tc": "龍滿樓", "name_sc": "龙满楼", "lat": "22.337746", "long": "114.192361"}, "alt": ["003025"], "td": ["8087", "20004134"], "rt": ["KMB_2D", "KMB_113"]}, "20915DF05723C615": {"data": {"stop": "20915DF05723C615", "name_en": "LUNG WAI HOUSE", "name_tc": "龍慧樓", "name_sc": "龙慧楼", "lat": "22.340024", "long": "114.194140"}, "alt": ["002993"], "td": ["7060", "20012116"], "rt": ["KMB_2D", "KMB_9", "KMB_11", "KMB_106", "KMB_106P", "KMB_113"]}, "302DF350591BF5EB": {"data": {"stop": "302DF350591BF5EB", "name_en": "WONG TAI SIN BUS TERMINUS", "name_tc": "黃大仙總站", "name_sc": "黄大仙总站", "lat": "22.340800", "long": "114.194990"}, "alt": ["302DF350591BF5EB", "302DF350591BF5EB", "47DD30C89AD33357", "262578A9C404DCD6", "6C15579CA43DF72E", "9FB606D162511C77", "EB3A1D751C96E053", "742F8953113CD926", "47DD30C89AD33357", "262578A9C404DCD6", "9FB606D162511C77", "EB3A1D751C96E053", "742F8953113CD926"], "td": ["7026", "13386"], "rt": ["KMB_2D"]}, "168487E2C681CB0D": {"data": {"stop": "168487E2C681CB0D", "name_en": "LUNG WING HOUSE", "name_tc": "龍榮樓", "name_sc": "龙荣楼", "lat": "22.339271", "long": "114.193843"}, "alt": [], "td": ["10244"], "rt": ["KMB_2D", "KMB_10"]}, "3942D55ED3DE84C9": {"data": {"stop": "3942D55ED3DE84C9", "name_en": "MORSE PARK NO. 2", "name_tc": "摩士第二公園", "name_sc": "摩士第二公园", "lat": "22.337576", "long": "114.192593"}, "alt": [], "td": ["8088"], "rt": ["KMB_2D", "KMB_10"]}, "01ED81CCAEB03162": {"data": {"stop": "01ED81CCAEB03162", "name_en": "TUNG TSING ROAD", "name_tc": "東正道", "name_sc": "东正道", "lat": "22.331596", "long": "114.192284"}, "alt": [], "td": ["8093"], "rt": ["KMB_2D"]}, "0BB21609A0E86B96": {"data": {"stop": "0BB21609A0E86B96", "name_en": "REGAL ORIENTAL HOTEL", "name_tc": "富豪東方酒店", "name_sc": "富豪东方酒店", "lat": "22.329997", "long": "114.192799"}, "alt": [], "td": ["820", "7056", "8097", "20012110", "20014190", "20014204"], "rt": ["KMB_2D"]}, "2DF37AC3002CB750": {"data": {"stop": "2DF37AC3002CB750", "name_en": "NAM KOK ROAD", "name_tc": "南角道", "name_sc": "南角道", "lat": "22.328812", "long": "114.189998"}, "alt": [], "td": ["8096", "8099", "20012111", "20014166", "20014191"], "rt": ["KMB_2D"]}, "18CBF1D5C8C9C449": {"data": {"stop": "18CBF1D5C8C9C449", "name_en": "FUK LO TSUN ROAD", "name_tc": "福佬村道", "name_sc": "福佬村道", "lat": "22.328897", "long": "114.187808"}, "alt": [], "td": ["8102", "9124", "9125"], "rt": ["KMB_2D"]}, "1CCCE3B2D9AB4D2A": {"data": {"stop": "1CCCE3B2D9AB4D2A", "name_en": "COLLEGE ROAD", "name_tc": "書院道", "name_sc": "书院道", "lat": "22.328972", "long": "114.184996"}, "alt": [], "td": ["9146", "9147", "20017180"], "rt": ["KMB_2D", "KMB_7B", "KMB_10"]}, "5C6ECA890BF03809": {"data": {"stop": "5C6ECA890BF03809", "name_en": "OXFORD ROAD", "name_tc": "牛津道", "name_sc": "牛津道", "lat": "22.330165", "long": "114.181276"}, "alt": [], "td": ["9135"], "rt": ["KMB_2D", "KMB_7B", "KMB_10"]}, "A926C2AC0071E407": {"data": {"stop": "A926C2AC0071E407", "name_en": "KOWLOON TONG CLUB", "name_tc": "九龍塘會", "name_sc": "九龙塘会", "lat": "22.329974", "long": "114.178761"}, "alt": [], "td": ["4225", "4238"], "rt": ["KMB_2D", "KMB_7B"]}, "AE88B3CCA11ACCDC": {"data": {"stop": "AE88B3CCA11ACCDC", "name_en": "EMBANKMENT ROAD", "name_tc": "基堤道", "name_sc": "基堤道", "lat": "22.325905", "long": "114.174204"}, "alt": ["003016"], "td": ["9119", "20017171"], "rt": ["KMB_2D", "KMB_6D", "KMB_6P", "KMB_113"]}, "8B2FD4BDD627C211": {"data": {"stop": "8B2FD4BDD627C211", "name_en": "TAI HANG TUNG RECREATION GROUND", "name_tc": "大坑東遊樂場", "name_sc": "大坑东游乐场", "lat": "22.328198", "long": "114.171990"}, "alt": ["002833"], "td": ["9200", "9201", "9202", "20000433", "20017172"], "rt": ["KMB_2D", "KMB_6D", "KMB_6P", "KMB_104"]}, "0EF525CD78152127": {"data": {"stop": "0EF525CD78152127", "name_en": "CONCORDIA LUTHERAN SCHOOL", "name_tc": "協同中學", "name_sc": "协同中学", "lat": "22.330064", "long": "114.171923"}, "alt": ["002822"], "td": ["284", "9198", "9199", "9203", "20013729"], "rt": ["KMB_2D", "KMB_6D", "KMB_6P", "KMB_104"]}, "2F8A93ADDCEF6856": {"data": {"stop": "2F8A93ADDCEF6856", "name_en": "SHEK KIP MEI  STATION", "name_tc": "石硤尾站", "name_sc": "石硖尾站", "lat": "22.331455", "long": "114.169457"}, "alt": ["002823"], "td": ["9194", "9195"], "rt": ["KMB_2D", "KMB_6D", "KMB_6P", "KMB_104"]}, "A86896A010757F50": {"data": {"stop": "A86896A010757F50", "name_en": "BLOCK 20 SHEK KIP MEI ESTATE", "name_tc": "石硤尾邨第20座", "name_sc": "石硖尾邨第20座", "lat": "22.332431", "long": "114.166897"}, "alt": [], "td": ["9193"], "rt": ["KMB_2D", "KMB_6D", "KMB_6P"]}, "E21DB57F640DB6A8": {"data": {"stop": "E21DB57F640DB6A8", "name_en": "BLOCK 23 SHEK KIP MEI ESTATE", "name_tc": "石硤尾邨第23座", "name_sc": "石硖尾邨第23座", "lat": "22.333633", "long": "114.165358"}, "alt": [], "td": ["9186"], "rt": ["KMB_2D"]}, "24F689B494BA3F6B": {"data": {"stop": "24F689B494BA3F6B", "name_en": "ON TIN HOUSE PAK TIN ESTATE", "name_tc": "白田邨安田樓", "name_sc": "白田邨安田楼", "lat": "22.335810", "long": "114.165463"}, "alt": [], "td": ["9189"], "rt": ["KMB_2D"]}, "C7A337AC40E14E19": {"data": {"stop": "C7A337AC40E14E19", "name_en": "BLOCK 9, PAK TIN ESTATE", "name_tc": "白田邨第9座", "name_sc": "白田邨第9座", "lat": "22.337012", "long": "114.165665"}, "alt": [], "td": ["10254", "13219", "20012010"], "rt": ["KMB_2D"]}, "F8972DCAFDFD47A6": {"data": {"stop": "F8972DCAFDFD47A6", "name_en": "CHAK TIN HOUSE", "name_tc": "澤田樓", "name_sc": "泽田楼", "lat": "22.336637", "long": "114.168054"}, "alt": [], "td": ["9182", "20013763"], "rt": ["KMB_2D"]}, "36EE1028F547488D": {"data": {"stop": "36EE1028F547488D", "name_en": "FU TIN HOUSE PAK TIN ESTATE", "name_tc": "白田邨富田樓", "name_sc": "白田邨富田楼", "lat": "22.336943", "long": "114.169137"}, "alt": [], "td": ["9183"], "rt": ["KMB_2D", "KMB_86", "KMB_86A", "KMB_86C", "KMB_87B", "KMB_286A"]}, "C3427DE8E291FFA6": {"data": {"stop": "C3427DE8E291FFA6", "name_en": "KOWLOON CITY FERRY BUS TERMINUS", "name_tc": "九龍城碼頭巴士總站", "name_sc": "九龙城码头巴士总站", "lat": "22.318413", "long": "114.193434"}, "alt": ["C3427DE8E291FFA6", "C3427DE8E291FFA6", "8EA2D34406C216D3", "6098480103C44C62", "A92AD89F447B3339", "CCD8857C4DC718BF", "E6DCDD4CCE10E4B7", "1D0E096C4E9766C6", "9F4A6557F20F676D", "8EA2D34406C216D3", "6098480103C44C62", "A92AD89F447B3339", "CCD8857C4DC718BF", "E6DCDD4CCE10E4B7", "1D0E096C4E9766C6", "9F4A6557F20F676D"], "td": ["9035"], "rt": ["KMB_2E", "KMB_6C", "KMB_6F", "KMB_6X"]}, "F8D1049558163BE6": {"data": {"stop": "F8D1049558163BE6", "name_en": "KWEI CHOW STREET", "name_tc": "貴州街", "name_sc": "贵州街", "lat": "22.318125", "long": "114.191562"}, "alt": [], "td": ["4166"], "rt": ["KMB_2E", "KMB_6C", "KMB_6F", "KMB_45", "KMB_85", "KMB_85B", "KMB_241X"]}, "7703B0499F66B205": {"data": {"stop": "7703B0499F66B205", "name_en": "LOK SHAN ROAD", "name_tc": "落山道", "name_sc": "落山道", "lat": "22.316802", "long": "114.190266"}, "alt": [], "td": ["4137", "4167", "4181", "9032", "9033", "20000704", "20006060", "20017165"], "rt": ["KMB_2E", "KMB_6C", "KMB_6F", "KMB_45", "KMB_241X"]}, "457C64EC8955C896": {"data": {"stop": "457C64EC8955C896", "name_en": "HUNG FOOK STREET", "name_tc": "鴻福街", "name_sc": "鸿福街", "lat": "22.314364", "long": "114.187925"}, "alt": [], "td": ["9031"], "rt": ["KMB_2E", "KMB_45", "KMB_241X"]}, "4A0370F0CA6A89B2": {"data": {"stop": "4A0370F0CA6A89B2", "name_en": "HOK YUEN STREET HUNG HOM", "name_tc": "紅磡鶴園街", "name_sc": "红磡鹤园街", "lat": "22.310192", "long": "114.187749"}, "alt": [], "td": ["1394"], "rt": ["KMB_2E", "KMB_45", "KMB_241X"]}, "997CCAB996935BD7": {"data": {"stop": "997CCAB996935BD7", "name_en": "HUNG HOM MARKET", "name_tc": "紅磡街市", "name_sc": "红磡街市", "lat": "22.307337", "long": "114.187135"}, "alt": ["001533"], "td": ["1395", "20000443"], "rt": ["KMB_2E", "KMB_106", "KMB_106A", "KMB_106P", "KMB_115"]}, "6638A31332E98C83": {"data": {"stop": "6638A31332E98C83", "name_en": "WALKER ROAD", "name_tc": "獲嘉道", "name_sc": "获嘉道", "lat": "22.308069", "long": "114.184561"}, "alt": [], "td": ["9022"], "rt": ["KMB_2E", "KMB_30X"]}, "5CCBD9A6B58BF20D": {"data": {"stop": "5CCBD9A6B58BF20D", "name_en": "KOWLOON UNION CHURCH", "name_tc": "九龍佑寧堂", "name_sc": "九龙佑宁堂", "lat": "22.305649", "long": "114.172574"}, "alt": ["001480"], "td": ["7082", "20000687"], "rt": ["KMB_2E", "KMB_11", "KMB_13X", "KMB_14", "KMB_14X", "KMB_26", "KMB_26X", "KMB_49", "KMB_98D", "KMB_98P", "KMB_110", "KMB_203C", "KMB_296D", "KMB_W2"]}, "E049C81469E2B3C0": {"data": {"stop": "E049C81469E2B3C0", "name_en": "PARKES STREET JORDAN", "name_tc": "佐敦白加士街", "name_sc": "佐敦白加士街", "lat": "22.305172", "long": "114.170361"}, "alt": ["002811"], "td": ["4272"], "rt": ["KMB_2E", "KMB_3C", "KMB_14", "KMB_49", "KMB_110", "KMB_203C", "KMB_238P", "KMB_238X"]}, "076E1E9D5874C41D": {"data": {"stop": "076E1E9D5874C41D", "name_en": "BATTERY STREET JORDAN", "name_tc": "佐敦炮台街", "name_sc": "佐敦炮台街", "lat": "22.305524", "long": "114.168430"}, "alt": ["001482"], "td": ["1164", "9002"], "rt": ["KMB_2E", "KMB_3C", "KMB_14", "KMB_49", "KMB_110", "KMB_203C", "KMB_238P", "KMB_238X", "KMB_260X", "KMB_268B", "KMB_269B", "KMB_271X"]}, "F2BD88B8D506E78A": {"data": {"stop": "F2BD88B8D506E78A", "name_en": "FERRY STREET", "name_tc": "渡船街", "name_sc": "渡船街", "lat": "22.307181", "long": "114.167159"}, "alt": ["002863"], "td": ["9016", "9017", "20000694", "20004189", "20007073", "20014289"], "rt": ["KMB_2E", "KMB_12", "KMB_914"]}, "16F899DA5289900D": {"data": {"stop": "16F899DA5289900D", "name_en": "YAN CHEUNG ROAD", "name_tc": "欣翔道", "name_sc": "欣翔道", "lat": "22.308881", "long": "114.166179"}, "alt": ["003355"], "td": ["13137", "13425", "20007072", "20007073"], "rt": ["KMB_2E", "KMB_12", "KMB_36X", "KMB_914"]}, "B96E368FC17CD0B0": {"data": {"stop": "B96E368FC17CD0B0", "name_en": "CHARMING GARDEN", "name_tc": "富榮花園", "name_sc": "富荣花园", "lat": "22.314039", "long": "114.164201"}, "alt": ["002860"], "td": ["9041", "10237", "20000868", "20000872"], "rt": ["KMB_2E", "KMB_10", "KMB_12", "KMB_36X", "KMB_271A", "KMB_914", "KMB_W3"]}, "420E7970087AD769": {"data": {"stop": "420E7970087AD769", "name_en": "PARK AVENUE", "name_tc": "柏景灣", "name_sc": "柏景湾", "lat": "22.316414", "long": "114.163641"}, "alt": ["002876"], "td": ["9040", "12980", "20003373", "20006102", "20012411"], "rt": ["KMB_2E", "KMB_10", "KMB_12", "KMB_36X", "KMB_271A", "KMB_914", "KMB_W3"]}, "520C9836ACAECDF9": {"data": {"stop": "520C9836ACAECDF9", "name_en": "FOO KWAI STREET", "name_tc": "富貴街", "name_sc": "富贵街", "lat": "22.318849", "long": "114.161872"}, "alt": ["001595"], "td": ["9049"], "rt": ["KMB_2E", "KMB_18", "KMB_31B", "KMB_271A", "KMB_914", "KMB_W3"]}, "22FE13158B36FE48": {"data": {"stop": "22FE13158B36FE48", "name_en": "COSMOPOLITAN ESTATE", "name_tc": "大同新村", "name_sc": "大同新村", "lat": "22.321795", "long": "114.161866"}, "alt": ["002865"], "td": ["9087"], "rt": ["KMB_2E", "KMB_18", "KMB_31B", "KMB_914"]}, "67064412B0E9D9A6": {"data": {"stop": "67064412B0E9D9A6", "name_en": "FUK LEE STREET", "name_tc": "福利街", "name_sc": "福利街", "lat": "22.323434", "long": "114.161776"}, "alt": ["002866"], "td": ["9086"], "rt": ["KMB_2E", "KMB_18", "KMB_31B", "KMB_914"]}, "F646F96A5D18D121": {"data": {"stop": "F646F96A5D18D121", "name_en": "CHINESE PUBLIC DISPENSARY SHAM SHUI PO", "name_tc": "深水埗公立醫局", "name_sc": "深水埗公立医局", "lat": "22.326978", "long": "114.161046"}, "alt": [], "td": ["9107", "9108"], "rt": ["KMB_2E"]}, "5B23A51CA34F4FAD": {"data": {"stop": "5B23A51CA34F4FAD", "name_en": "YU CHAU STREET", "name_tc": "汝州街", "name_sc": "汝州街", "lat": "22.328681", "long": "114.162560"}, "alt": [], "td": ["199", "4109", "9210", "20017002", "20017053"], "rt": ["KMB_2E", "KMB_214"]}, "710390556FA80CAD": {"data": {"stop": "710390556FA80CAD", "name_en": "FUK WA STREET", "name_tc": "福華街", "name_sc": "福华街", "lat": "22.330425", "long": "114.164174"}, "alt": [], "td": ["4195", "4204", "9230", "9232", "9233", "9235"], "rt": ["KMB_2E", "KMB_2F", "KMB_86C", "KMB_214"]}, "AFE0100DABA53C21": {"data": {"stop": "AFE0100DABA53C21", "name_en": "WOH CHAI STREET", "name_tc": "窩仔街", "name_sc": "窝仔街", "lat": "22.332483", "long": "114.166103"}, "alt": [], "td": ["9176", "9194", "9195", "9196", "9471", "12439", "20000519", "20013727", "20013728", "20013761"], "rt": ["KMB_2E", "KMB_87B"]}, "BBC5D60D2FB827D2": {"data": {"stop": "BBC5D60D2FB827D2", "name_en": "SHUI TIN HOUSE PAK TIN ESTATE", "name_tc": "白田邨瑞田樓", "name_sc": "白田邨瑞田楼", "lat": "22.334875", "long": "114.168291"}, "alt": ["003190"], "td": ["9179", "9180", "10000200"], "rt": ["KMB_2E", "KMB_86", "KMB_86A", "KMB_86C", "KMB_87B", "KMB_104", "KMB_286A"]}, "C47ACFA9541AB34F": {"data": {"stop": "C47ACFA9541AB34F", "name_en": "PAK TIN (NORTH) BUS TERMINUS", "name_tc": "白田(北) 巴士總站", "name_sc": "白田(北) 巴士总站", "lat": "22.336465", "long": "114.168290"}, "alt": ["C47ACFA9541AB34F", "C47ACFA9541AB34F"], "td": ["9181"], "rt": ["KMB_2E"]}, "708EB21B10D1588F": {"data": {"stop": "708EB21B10D1588F", "name_en": "Pak Tin Public Transport Interchange", "name_tc": "白田巴士總站", "name_sc": "白田巴士总站", "lat": "22.336250", "long": "114.165823"}, "alt": ["75832B86D4FA0C91", "75832B86D4FA0C91", "708EB21B10D1588F", "708EB21B10D1588F", "DAB449CCCBA93789", "241A8AC2A2889D05", "DAB449CCCBA93789", "241A8AC2A2889D05"], "td": ["10000103"], "rt": ["KMB_2E"]}, "E3965CA6EFD60F36": {"data": {"stop": "E3965CA6EFD60F36", "name_en": "LAI TIN HOUSE, PAK TIN ESTATE", "name_tc": "白田邨麗田樓", "name_sc": "白田邨丽田楼", "lat": "22.334996", "long": "114.167310"}, "alt": ["002827"], "td": ["13218"], "rt": ["KMB_2E", "KMB_104"]}, "259DBCF52320E083": {"data": {"stop": "259DBCF52320E083", "name_en": "FUK WA STREET", "name_tc": "福華街", "name_sc": "福华街", "lat": "22.330266", "long": "114.164462"}, "alt": [], "td": ["4195", "4204", "9230", "9232", "9233", "9235"], "rt": ["KMB_2E", "KMB_86C", "KMB_87B"]}, "BDA357B832C55019": {"data": {"stop": "BDA357B832C55019", "name_en": "KI LUNG STREET", "name_tc": "基隆街", "name_sc": "基隆街", "lat": "22.328428", "long": "114.162836"}, "alt": [], "td": ["9209", "9212", "9213", "20017001"], "rt": ["KMB_2E", "KMB_87B"]}, "9A773DDB814933C1": {"data": {"stop": "9A773DDB814933C1", "name_en": "CHINESE PUBLIC DISPENSARY SHAM SHUI PO", "name_tc": "深水埗公立醫局", "name_sc": "深水埗公立医局", "lat": "22.326728", "long": "114.161283"}, "alt": ["002857"], "td": ["9107", "9108"], "rt": ["KMB_2E", "KMB_18", "KMB_31B", "KMB_914", "KMB_914X"]}, "C163B1F33533C2A9": {"data": {"stop": "C163B1F33533C2A9", "name_en": "LARCH STREET SITTING-OUT AREA", "name_tc": "洋松街休憩處", "name_sc": "洋松街休憩处", "lat": "22.323476", "long": "114.162038"}, "alt": ["002858"], "td": ["9085", "20015249"], "rt": ["KMB_2E", "KMB_18", "KMB_31B", "KMB_905P", "KMB_914", "KMB_914X"]}, "6A225A9CB16BC4BB": {"data": {"stop": "6A225A9CB16BC4BB", "name_en": "NEW KOWLOON PLAZA", "name_tc": "新九龍廣場", "name_sc": "新九龙广场", "lat": "22.319785", "long": "114.162229"}, "alt": ["002859"], "td": ["9088", "9089", "20015256", "20017037"], "rt": ["KMB_2E", "KMB_18", "KMB_31B", "KMB_905P", "KMB_914", "KMB_914X"]}, "F5098BFD784B8FAB": {"data": {"stop": "F5098BFD784B8FAB", "name_en": "HOI FU COURT", "name_tc": "海富苑", "name_sc": "海富苑", "lat": "22.316217", "long": "114.163941"}, "alt": ["002877"], "td": ["10236", "20006101", "20009140"], "rt": ["KMB_2E", "KMB_12", "KMB_12P", "KMB_271A", "KMB_905P", "KMB_914", "KMB_914P", "KMB_914X", "KMB_W3"]}, "1C7C526A52EF9171": {"data": {"stop": "1C7C526A52EF9171", "name_en": "CHARMING GARDEN", "name_tc": "富榮花園", "name_sc": "富荣花园", "lat": "22.313988", "long": "114.164449"}, "alt": ["002860"], "td": ["9041", "10237", "20000868", "20000872"], "rt": ["KMB_2E", "KMB_12", "KMB_12P", "KMB_271A", "KMB_914", "KMB_914P", "KMB_914X", "KMB_W3"]}, "DED3339EB26494EA": {"data": {"stop": "DED3339EB26494EA", "name_en": "KANSU STREET", "name_tc": "甘肅街", "name_sc": "甘肃街", "lat": "22.308783", "long": "114.167883"}, "alt": [], "td": ["13136"], "rt": ["KMB_2E", "KMB_12", "KMB_12P"]}, "577633405E7A3ACD": {"data": {"stop": "577633405E7A3ACD", "name_en": "FERRY STREET", "name_tc": "渡船街", "name_sc": "渡船街", "lat": "22.307260", "long": "114.167506"}, "alt": [], "td": ["9016", "9017", "20000694", "20004189", "20007073", "20014289"], "rt": ["KMB_2E", "KMB_12", "KMB_12P"]}, "86E1C776C6D78DFC": {"data": {"stop": "86E1C776C6D78DFC", "name_en": "TEMPLE STREET JORDAN", "name_tc": "佐敦廟街", "name_sc": "佐敦庙街", "lat": "22.305384", "long": "114.169858"}, "alt": [], "td": ["1320"], "rt": ["KMB_2E", "KMB_42A", "KMB_238X"]}, "617893F4DBBEDE21": {"data": {"stop": "617893F4DBBEDE21", "name_en": "CHI WO STREET JORDAN", "name_tc": "佐敦志和街", "name_sc": "佐敦志和街", "lat": "22.305858", "long": "114.172450"}, "alt": [], "td": ["1321"], "rt": ["KMB_2E"]}, "4CA486B230A34D3A": {"data": {"stop": "4CA486B230A34D3A", "name_en": "WYLIE ROAD", "name_tc": "衛理道", "name_sc": "卫理道", "lat": "22.306743", "long": "114.176114"}, "alt": [], "td": ["773", "774", "779", "1322", "20013237"], "rt": ["KMB_2E", "KMB_6C", "KMB_6F", "KMB_30X", "KMB_203C"]}, "B0095CE9771BFC17": {"data": {"stop": "B0095CE9771BFC17", "name_en": "MARSH STREET", "name_tc": "孖庶街", "name_sc": "孖庶街", "lat": "22.307305", "long": "114.186095"}, "alt": ["001631"], "td": ["4260"], "rt": ["KMB_2E", "KMB_7B", "KMB_8", "KMB_12A", "KMB_106", "KMB_106P"]}, "FEF7B371B95E5E13": {"data": {"stop": "FEF7B371B95E5E13", "name_en": "FAT KWONG STREET HUNG HOM", "name_tc": "紅磡佛光街", "name_sc": "红磡佛光街", "lat": "22.309482", "long": "114.187523"}, "alt": [], "td": ["9028"], "rt": ["KMB_2E", "KMB_6C", "KMB_6F", "KMB_6X", "KMB_45", "KMB_241X"]}, "9E655CE3250647EA": {"data": {"stop": "9E655CE3250647EA", "name_en": "SHEK TONG STREET", "name_tc": "石塘街", "name_sc": "石塘街", "lat": "22.313763", "long": "114.187490"}, "alt": ["002985"], "td": ["4179", "20010065"], "rt": ["KMB_2E", "KMB_6C", "KMB_6F", "KMB_6X", "KMB_45", "KMB_115", "KMB_241X"]}, "2C7AEE8C6B2BC06A": {"data": {"stop": "2C7AEE8C6B2BC06A", "name_en": "CHI KIANG STREET", "name_tc": "浙江街", "name_sc": "浙江街", "lat": "22.315758", "long": "114.189056"}, "alt": ["002986"], "td": ["806", "4123", "4180", "20000678", "20002013", "20017163"], "rt": ["KMB_2E", "KMB_6C", "KMB_6F", "KMB_6X", "KMB_45", "KMB_75X", "KMB_85", "KMB_85B", "KMB_115", "KMB_241X"]}, "0B8D095A45B05587": {"data": {"stop": "0B8D095A45B05587", "name_en": "LOK SHAN ROAD", "name_tc": "落山道", "name_sc": "落山道", "lat": "22.317154", "long": "114.190345"}, "alt": ["002987"], "td": ["4137", "4167", "4181", "9032", "9033", "20000704", "20006060", "20017165"], "rt": ["KMB_2E", "KMB_6C", "KMB_6F", "KMB_6X", "KMB_45", "KMB_75X", "KMB_85", "KMB_85B", "KMB_115", "KMB_241X"]}, "76A2633F9A463E9C": {"data": {"stop": "76A2633F9A463E9C", "name_en": "TSZ WAN SHAN (NORTH) BUS TERMINUS", "name_tc": "慈雲山(北)總站", "name_sc": "慈云山(北)总站", "lat": "22.351029", "long": "114.198136"}, "alt": ["76A2633F9A463E9C", "76A2633F9A463E9C", "FD18FAF570857B51", "94780B40412261CE", "63F9F0AFDF272DBA", "DAE04FEC0D09BED6", "FD18FAF570857B51", "94780B40412261CE", "63F9F0AFDF272DBA", "DAE04FEC0D09BED6"], "td": ["1408"], "rt": ["KMB_2F", "KMB_2P"]}, "A9E1D35DB7FC7C7B": {"data": {"stop": "A9E1D35DB7FC7C7B", "name_en": "OI FU HOUSE", "name_tc": "愛富閣", "name_sc": "爱富阁", "lat": "22.350837", "long": "114.199392"}, "alt": ["003032"], "td": ["1407", "8347", "20007059"], "rt": ["KMB_2F", "KMB_3C", "KMB_3X", "KMB_15A", "KMB_302", "KMB_302A"]}, "FDFC87BC94515900": {"data": {"stop": "FDFC87BC94515900", "name_en": "CHING HONG HOUSE", "name_tc": "正康樓", "name_sc": "正康楼", "lat": "22.348703", "long": "114.202724"}, "alt": [], "td": ["1411", "20000595", "20012709"], "rt": ["KMB_2F", "KMB_3B", "KMB_3C", "KMB_3X", "KMB_5C", "KMB_5P", "KMB_5X"]}, "E778E67CBC095B0C": {"data": {"stop": "E778E67CBC095B0C", "name_en": "TAK OI SECONDARY SCHOOL", "name_tc": "德愛中學", "name_sc": "德爱中学", "lat": "22.348039", "long": "114.204250"}, "alt": [], "td": ["1412", "4154", "4190", "20000591", "20001045"], "rt": ["KMB_2F", "KMB_3B", "KMB_3C", "KMB_3X", "KMB_5C", "KMB_5P", "KMB_5X", "KMB_15A"]}, "29F7954D216356E1": {"data": {"stop": "29F7954D216356E1", "name_en": "KOON WAH LANE", "name_tc": "貫華里", "name_sc": "贯华里", "lat": "22.347134", "long": "114.202250"}, "alt": [], "td": ["4155"], "rt": ["KMB_2F", "KMB_5C", "KMB_5P", "KMB_5X"]}, "2FBEE4E1965D7EF5": {"data": {"stop": "2FBEE4E1965D7EF5", "name_en": "LOK MOON HOUSE", "name_tc": "樂滿樓", "name_sc": "乐满楼", "lat": "22.347212", "long": "114.200452"}, "alt": [], "td": ["4156", "20012711"], "rt": ["KMB_2F", "KMB_15A"]}, "95067FE712E8ACEA": {"data": {"stop": "95067FE712E8ACEA", "name_en": "SHUNG WAH STREET", "name_tc": "崇華街", "name_sc": "崇华街", "lat": "22.346357", "long": "114.198400"}, "alt": [], "td": ["4157", "20012712"], "rt": ["KMB_2F", "KMB_5C", "KMB_5P", "KMB_5X", "KMB_15A"]}, "20709808D79F1BB9": {"data": {"stop": "20709808D79F1BB9", "name_en": "KAM FUNG STREET SITTING-OUT AREA", "name_tc": "金鳳街休憩處", "name_sc": "金凤街休憩处", "lat": "22.344944", "long": "114.197735"}, "alt": [], "td": ["4158"], "rt": ["KMB_2F", "KMB_5C", "KMB_5P", "KMB_5X"]}, "E81E4649EB1D5B02": {"data": {"stop": "E81E4649EB1D5B02", "name_en": "MEI TAK HOUSE", "name_tc": "美德樓", "name_sc": "美德楼", "lat": "22.343510", "long": "114.197989"}, "alt": [], "td": ["4159", "20012713"], "rt": ["KMB_2F", "KMB_5C", "KMB_5P", "KMB_5X", "KMB_15A"]}, "62A1C8EFAC876BDB": {"data": {"stop": "62A1C8EFAC876BDB", "name_en": "WONG TAI SIN BBI - WONG TAI SIN TEMPLE (D2)", "name_tc": "黃大仙轉車站 - 黃大仙廟 (D2)", "name_sc": "黄大仙转车站 - 黄大仙庙 (D2)", "lat": "22.341470", "long": "114.195370"}, "alt": ["62A1C8EFAC876BDB", "62A1C8EFAC876BDB", "0EB21C27E769261B", "0EAFBD8737911A6A", "0EB21C27E769261B", "0EAFBD8737911A6A"], "td": [], "rt": ["KMB_2F", "KMB_3C", "KMB_40", "KMB_42C", "KMB_214", "KMB_214P", "KMB_234D", "KMB_N214", "KMB_X42C"]}, "93D9D88C2D990D67": {"data": {"stop": "93D9D88C2D990D67", "name_en": "MORSE PARK SWIMMING POOL", "name_tc": "摩士公園泳池", "name_sc": "摩士公园泳池", "lat": "22.341570", "long": "114.191604"}, "alt": ["001524"], "td": ["1372"], "rt": ["KMB_2F", "KMB_3C", "KMB_69C", "KMB_75X", "KMB_84M", "KMB_113", "KMB_214", "KMB_214P", "KMB_268A", "KMB_268C", "KMB_269C", "KMB_N214"]}, "1CBA941164585ABC": {"data": {"stop": "1CBA941164585ABC", "name_en": "CHEUNG SHA WAN BUS TERMINUS", "name_tc": "長沙灣巴士總站", "name_sc": "长沙湾巴士总站", "lat": "22.337104", "long": "114.148698"}, "alt": ["2C1F7467E446B212", "2C1F7467E446B212", "1CBA941164585ABC", "1CBA941164585ABC", "42DD929DA7838903", "69741C71C234C871", "C11E1332DE4D4C5E", "42DD929DA7838903", "69741C71C234C871", "C11E1332DE4D4C5E"], "td": ["865"], "rt": ["KMB_2F", "KMB_2P"]}, "43EE0C39CD39BA06": {"data": {"stop": "43EE0C39CD39BA06", "name_en": "PO LEUNG KUK NO.1 W. H. CHEUNG COLLEGE", "name_tc": "保良局第一張永慶中學", "name_sc": "保良局第一张永庆中学", "lat": "22.346282", "long": "114.205390"}, "alt": [], "td": ["12404"], "rt": ["KMB_3B", "KMB_3D", "KMB_N3D"]}, "EF01999C9F909553": {"data": {"stop": "EF01999C9F909553", "name_en": "DIAMOND HILL CREMATORIUM", "name_tc": "鑽石山火葬場", "name_sc": "钻石山火葬场", "lat": "22.345108", "long": "114.206879"}, "alt": ["003029"], "td": ["10231", "20000791"], "rt": ["KMB_3B", "KMB_3D", "KMB_3M", "KMB_116", "KMB_203E", "KMB_302A", "KMB_N3D"]}, "BF3D6019C5CA6D35": {"data": {"stop": "BF3D6019C5CA6D35", "name_en": "FU SHAN ESTATE", "name_tc": "富山邨", "name_sc": "富山邨", "lat": "22.342011", "long": "114.208247"}, "alt": [], "td": ["1404", "1413", "12770", "10000281", "10000282", "20000590", "20007819", "20007823"], "rt": ["KMB_3D", "KMB_N3D"]}, "711A39D02DB2B4D8": {"data": {"stop": "711A39D02DB2B4D8", "name_en": "HAMMER HILL ROAD SPORTS GROUND", "name_tc": "斧山道運動場", "name_sc": "斧山道运动场", "lat": "22.339659", "long": "114.207353"}, "alt": ["001705"], "td": ["1414"], "rt": ["KMB_3B", "KMB_3D", "KMB_3M", "KMB_5", "KMB_116", "KMB_203E", "KMB_302A", "KMB_N3D"]}, "52A8DA8958AFCCA6": {"data": {"stop": "52A8DA8958AFCCA6", "name_en": "DIAMOND HILL STATION", "name_tc": "鑽石山站", "name_sc": "钻石山站", "lat": "22.339246", "long": "114.202191"}, "alt": [], "td": ["1146", "1357", "1371", "10000157", "20000588"], "rt": ["KMB_38", "KMB_40", "KMB_40P", "KMB_42C", "KMB_61X", "KMB_62X", "KMB_214", "KMB_214P", "KMB_252X", "KMB_258D", "KMB_258P", "KMB_259D", "KMB_267X", "KMB_N214", "KMB_N290", "KMB_X42C"]}, "65842E04BFE99758": {"data": {"stop": "65842E04BFE99758", "name_en": "WING KWONG COLLEGE", "name_tc": "永光書院", "name_sc": "永光书院", "lat": "22.342338", "long": "114.188530"}, "alt": [], "td": ["1009"], "rt": ["KMB_38", "KMB_40", "KMB_40P", "KMB_42C", "KMB_214", "KMB_214P", "KMB_290A", "KMB_N214", "KMB_N290", "KMB_X42C"]}, "EFED59E880B693F5": {"data": {"stop": "EFED59E880B693F5", "name_en": "TIN MA COURT", "name_tc": "天馬苑", "name_sc": "天马苑", "lat": "22.342418", "long": "114.186220"}, "alt": [], "td": ["994", "1422", "20002197", "20003318", "20013962", "20015995", "20017135"], "rt": ["KMB_38", "KMB_40P", "KMB_42C", "KMB_74A", "KMB_74S", "KMB_89", "KMB_X42C"]}, "29A62A8FE112766B": {"data": {"stop": "29A62A8FE112766B", "name_en": "PHOENIX HOUSE", "name_tc": "豐力樓", "name_sc": "丰力楼", "lat": "22.342585", "long": "114.172991"}, "alt": [], "td": ["9165", "9166"], "rt": ["KMB_33", "KMB_33B", "KMB_38", "KMB_38P", "KMB_40", "KMB_40P", "KMB_42C", "KMB_86", "KMB_86A", "KMB_87B", "KMB_214", "KMB_214P", "KMB_234C", "KMB_234D", "KMB_290", "KMB_290A", "KMB_290B", "KMB_290E", "KMB_290X", "KMB_N214", "KMB_N290", "KMB_X42C"]}, "9751EE79B103C9B8": {"data": {"stop": "9751EE79B103C9B8", "name_en": "BEACON HEIGHTS", "name_tc": "畢架山花園", "name_sc": "毕架山花园", "lat": "22.341649", "long": "114.166733"}, "alt": [], "td": ["993", "1010", "20000758"], "rt": ["KMB_38", "KMB_40", "KMB_40P", "KMB_42C", "KMB_86", "KMB_86A", "KMB_87B", "KMB_214", "KMB_214P", "KMB_234C", "KMB_234D", "KMB_290", "KMB_290A", "KMB_290B", "KMB_290E", "KMB_290X", "KMB_N214", "KMB_N290"]}, "B123EFA9F9DDD6AB": {"data": {"stop": "B123EFA9F9DDD6AB", "name_en": "CHAK ON ESTATE", "name_tc": "澤安邨", "name_sc": "泽安邨", "lat": "22.340424", "long": "114.165276"}, "alt": [], "td": ["9161", "9162", "9164", "20000745", "20000753"], "rt": ["KMB_86", "KMB_86A", "KMB_87B", "KMB_214", "KMB_214P", "KMB_N214"]}, "16D37394ECACA7AD": {"data": {"stop": "16D37394ECACA7AD", "name_en": "FUK WING STREET SHAM SHUI PO", "name_tc": "深水埗福榮街", "name_sc": "深水埗福荣街", "lat": "22.332816", "long": "114.162115"}, "alt": ["002815"], "td": ["4101"], "rt": ["KMB_2F", "KMB_31B", "KMB_36A", "KMB_N122"]}, "812E72C257C94B73": {"data": {"stop": "812E72C257C94B73", "name_en": "PEI HO STREET SHAM SHUI PO (Y27)", "name_tc": "深水埗北河街 (Y27)", "name_sc": "深水埗北河街 (Y27)", "lat": "22.330678", "long": "114.162566"}, "alt": ["812E72C257C94B73", "812E72C257C94B73", "943DA171019723CE", "E5EBA1D47BA06FCC", "5159E5E97EA88D9D", "1E29A8A8D3F6BABB", "652BD65D62F807DE", "943DA171019723CE", "E5EBA1D47BA06FCC", "5159E5E97EA88D9D", "1E29A8A8D3F6BABB", "652BD65D62F807DE"], "td": [], "rt": ["KMB_2F", "KMB_33A", "KMB_37", "KMB_66X", "KMB_68X", "KMB_86C"]}, "F893C6ABC2743F64": {"data": {"stop": "F893C6ABC2743F64", "name_en": "LUNG CHEUNG GOVT. SEC. SCHOOL", "name_tc": "龍翔官立中學", "name_sc": "龙翔官立中学", "lat": "22.342344", "long": "114.189898"}, "alt": [], "td": ["9149", "10258"], "rt": ["KMB_2F", "KMB_2P", "KMB_3C", "KMB_38", "KMB_40", "KMB_40A", "KMB_40B", "KMB_40P", "KMB_42C", "KMB_61X", "KMB_62P", "KMB_62X", "KMB_75X", "KMB_84M", "KMB_889", "KMB_X42C"]}, "B27236FC63F891D9": {"data": {"stop": "B27236FC63F891D9", "name_en": "WONG TAI SIN BBI - WONG TAI SIN TEMPLE (B3)", "name_tc": "黃大仙轉車站 - 黃大仙廟 (B3)", "name_sc": "黄大仙转车站 - 黄大仙庙 (B3)", "lat": "22.341855", "long": "114.192263"}, "alt": ["B27236FC63F891D9", "B27236FC63F891D9", "9FD865B00B2D54A1", "38330C642568FE3F", "5536C9E3A0CE1228", "A7ACF96685132360", "58100E7F618C4018", "9FD865B00B2D54A1", "38330C642568FE3F", "5536C9E3A0CE1228", "A7ACF96685132360", "58100E7F618C4018"], "td": [], "rt": ["KMB_2F", "KMB_2P", "KMB_3C", "KMB_75X", "KMB_84M", "KMB_252X", "KMB_267X", "KMB_889"]}, "A15FFC3149FB92A0": {"data": {"stop": "A15FFC3149FB92A0", "name_en": "WONG TAI SIN BBI - SHATIN PASS ROAD (A2)", "name_tc": "黃大仙轉車站 - 沙田坳道 (A2)", "name_sc": "黄大仙转车站 - 沙田坳道 (A2)", "lat": "22.341856", "long": "114.195204"}, "alt": ["A15FFC3149FB92A0", "A15FFC3149FB92A0", "96A6FE5F07BDF203", "96A6FE5F07BDF203"], "td": [], "rt": ["KMB_2F", "KMB_2P", "KMB_3C", "KMB_11C", "KMB_38", "KMB_42C", "KMB_62P", "KMB_62X", "KMB_89", "KMB_89B", "KMB_214", "KMB_258A", "KMB_258D", "KMB_258P", "KMB_258S", "KMB_259D", "KMB_X42C"]}, "88E23CD2F1AB7AF9": {"data": {"stop": "88E23CD2F1AB7AF9", "name_en": "FU YAU BUILDING", "name_tc": "富祐大廈", "name_sc": "富佑大厦", "lat": "22.344130", "long": "114.198779"}, "alt": [], "td": ["4187", "20000786"], "rt": ["KMB_2F", "KMB_3C", "KMB_3S", "KMB_3X", "KMB_5C", "KMB_5P", "KMB_5X", "KMB_15A", "KMB_203E"]},